station_cd,station_g_cd,station_name,station_name_en,station_name_k,station_name_r,line_cd,pref_cd,post,address,address_en,lon,lat,open_ymd,close_ymd,e_status,e_sort,postcode,city_en,prefecture
1110101,1110101,函館,Hakodate,,,11101,1,400063,北海道函館市若松町１２-１３,Hokkaidou Hakodate shi Wakamatsuchou 12 - 13,140.726413,41.773709,1902-12-10,0000-00-00,0,1110101,400063,Hakodate shi,Hokkaidou
1110102,1110102,五稜郭,Goryoukaku,,,11101,1,410813,函館市亀田本町,Hakodate shi Kameda Honchou,140.733539,41.803557,0000-00-00,0000-00-00,0,1110102,410813,Hakodate shi,Hokkaidou
1110103,1110103,桔梗,Kikyou,,,11101,1,410801,北海道函館市桔梗３丁目４１-３６,Hokkaidou Hakodate shi kikyou 3 choume 41 - 36,140.722952,41.846457,1902-12-10,0000-00-00,0,1110103,410801,Hakodate shi,Hokkaidou
1110104,1110104,大中山,Daichuusan,,,11101,1,411121,亀田郡七飯町大字大中山,Kameda gun Nanae machi ooazadai Nakayama,140.71358,41.864641,0000-00-00,0000-00-00,0,1110104,411121,Kameda gun Nanae machi,Hokkaidou
1110105,1110105,七飯,Nanae,,,11101,1,411111,亀田郡七飯町字本町,Kameda gun Nanae chou ji Honchou,140.688556,41.886971,0000-00-00,0000-00-00,0,1110105,411111,Kameda gun Nanae machi,Hokkaidou
1110106,1110106,新函館北斗,ShinHakodate hokuto,,,11101,1,411242,北海道北斗市市渡,Hokkaidou hokuto shi shi watashi,140.646525,41.9054,1902-12-10,0000-00-00,0,1110106,411242,Hokuto shi,Hokkaidou
1110107,1110107,仁山,Hitoshisan,,,11101,1,411101,亀田郡七飯町字仁山,Kameda gun Nanae chou ji jinsan,140.635183,41.930011,0000-00-00,0000-00-00,0,1110107,411101,Kameda gun Nanae machi,Hokkaidou
1110108,1110108,大沼,Oonuma,,,11101,1,411354,北海道亀田郡七飯町字大沼町４,Hokkaidou Kameda gun Nanae chou ji Oonuma chou 4,140.669347,41.971954,1903-06-28,0000-00-00,0,1110108,411354,Kameda gun Nanae machi,Hokkaidou
1110109,1110109,大沼公園,Oonuma kouen,,,11101,1,411354,北海道亀田郡七飯町字大沼町８５,Hokkaidou Kameda gun Nanae chou ji Oonuma chou 85,140.669758,41.980958,1907-06-05,0000-00-00,0,1110109,411354,Kameda gun Nanae machi,Hokkaidou
1110110,1110110,赤井川,Akaigawa,,,11101,1,492142,茅部郡森町字赤井川,Kayabe gun Mori chou ji Akaigawa,140.642678,42.003267,0000-00-00,0000-00-00,0,1110110,492142,Kayabe gun Mori machi,Hokkaidou
1110111,1110111,駒ケ岳,Komagatake,,,11101,1,492300,北海道茅部郡森町字駒ヶ岳,Hokkaidou Kayabe gun Mori chou ji Komagatake,140.610476,42.038809,0000-00-00,0000-00-00,0,1110111,492300,Kayabe gun Mori machi,Hokkaidou
1110112,1110112,東山,Higashiyama,,,11101,1,492141,茅部郡森町字駒ケ岳,Kayabe gun Mori chou ji Komagatake,140.605222,42.06172,1943-02-26,2017-03-04,2,1110112,492141,Kayabe gun Mori machi,Hokkaidou
1110113,1110113,姫川,Himekawa,,,11101,1,492306,茅部郡森町字姫川,Kayabe gun Mori chou ji Himekawa,140.591632,42.081312,1951-05-19,2017-03-04,2,1110113,492306,Kayabe gun Mori machi,Hokkaidou
1110114,1110114,池田園,Ikedaen,,,11101,1,411352,亀田郡七飯町字軍川,Kameda gun Nanae chou ji gun kawa,140.700333,41.990692,1945-06-01,2022-03-12,2,1110114,411352,Kameda gun Nanae machi,Hokkaidou
1110115,1110115,流山温泉,Nagareyama onsen,,,11101,1,411351,亀田郡七飯町字東大沼２３６,Kameda gun Nanae chou ji higashi Oonuma 236,140.716358,42.003483,2002-04-27,2022-03-12,2,1110115,411351,Kameda gun Nanae machi,Hokkaidou
1110116,1110116,銚子口,Choushi kuchi,,,11101,1,411351,亀田郡七飯町字東大沼,Kameda gun Nanae chou ji higashi Oonuma,140.720656,42.015471,1945-06-01,2022-03-12,2,1110116,411351,Kameda gun Nanae machi,Hokkaidou
1110117,1110117,鹿部,Shikabe,,,11101,1,411404,茅部郡鹿部町字本別,Kayabe gun Shikabe chou ji Honbetsu,140.771393,42.06439,0000-00-00,0000-00-00,0,1110117,411404,Kayabe gun Shikabe machi,Hokkaidou
1110118,1110118,渡島沼尻,Oshima Numajiri,,,11101,1,492223,茅部郡森町砂原東４丁目,Kayabe gun Mori chou Sawara higashi 4 choume,140.747596,42.10706,0000-00-00,0000-00-00,0,1110118,492223,Kayabe gun Mori machi,Hokkaidou
1110119,1110119,渡島砂原,Oshima sunahara,,,11101,1,492222,茅部郡森町砂原４丁目,Kayabe gun Mori chou Sawara 4 choume,140.689451,42.12164,0000-00-00,0000-00-00,0,1110119,492222,Kayabe gun Mori machi,Hokkaidou
1110120,1110120,掛澗,Kakari kan,,,11101,1,492221,茅部郡森町砂原西３丁目,Kayabe gun Mori chou Sawara nishi 3 choume,140.64598,42.119205,0000-00-00,0000-00-00,0,1110120,492221,Kayabe gun Mori machi,Hokkaidou
1110121,1110121,尾白内,Ojironai,,,11101,1,492301,茅部郡森町字尾白内町,Kayabe gun Mori chou ji ojironai machi,140.613449,42.111232,0000-00-00,0000-00-00,0,1110121,492301,Kayabe gun Mori machi,Hokkaidou
1110122,1110122,東森,Higashi mori,,,11101,1,492302,茅部郡森町字港町,Kayabe gun Mori chou ji minatomachi,140.59353,42.106823,0000-00-00,0000-00-00,0,1110122,492302,Kayabe gun Mori machi,Hokkaidou
1110123,1110123,森,Mori,,,11101,1,492325,茅部郡森町字本町,Kayabe gun Mori chou ji Honchou,140.573846,42.108917,0000-00-00,0000-00-00,0,1110123,492325,Kayabe gun Mori machi,Hokkaidou
1110124,1110124,桂川,Katsuragawa,,,11101,1,492321,茅部郡森町字鷲ノ木町,Kayabe gun Mori chou ji washi no ki machi,140.5427876,42.1156004,1944-09-30,2017-03-04,2,1110124,492321,Kayabe gun Mori machi,Hokkaidou
1110125,1110125,石谷,Ishigaya,,,11101,1,492464,茅部郡森町字本茅部町,Kayabe gun Mori chou ji hon Kayabe machi,140.506525,42.135519,1930-03-20,2022-03-12,2,1110125,492464,Kayabe gun Mori machi,Hokkaidou
1110126,1110126,本石倉,Hongokusou,,,11101,1,492463,茅部郡森町字石倉町,Kayabe gun Mori chou ji ishigura machi,140.471957,42.159668,1944-09-10,2022-03-12,2,1110126,492463,Kayabe gun Mori machi,Hokkaidou
1110127,1110127,石倉,Ishigura,,,11101,1,492463,茅部郡森町字石倉町,Kayabe gun Mori chou ji ishigura machi,140.458436,42.17285,0000-00-00,0000-00-00,0,1110127,492463,Kayabe gun Mori machi,Hokkaidou
1110128,1110128,落部,Otoshibe,,,11101,1,492562,二海郡八雲町落部,Futami gun Yakumo chou Otoshibe,140.420755,42.187617,0000-00-00,0000-00-00,0,1110128,492562,Futami gun Yakumo machi,Hokkaidou
1110129,1110129,野田生,Nodasei,,,11101,1,492672,二海郡八雲町野田生,Futami gun Yakumo chou Nodasei,140.37586,42.217104,0000-00-00,0000-00-00,0,1110129,492672,Futami gun Yakumo machi,Hokkaidou
1110130,1110130,山越,Yamagoe,,,11101,1,492671,二海郡八雲町山越,Futami gun Yakumo machi yamagoe,140.326593,42.231172,0000-00-00,0000-00-00,0,1110130,492671,Futami gun Yakumo machi,Hokkaidou
1110131,1110131,八雲,Yakumo,,,11101,1,493107,二海郡八雲町本町,Futami gun Yakumo chou Honchou,140.273342,42.253391,0000-00-00,0000-00-00,0,1110131,493107,Futami gun Yakumo machi,Hokkaidou
1110132,1110132,鷲ノ巣,Washi no su,,,11101,1,493122,二海郡八雲町花浦,Futami gun Yakumo machi hana ura,140.269919,42.278389,1987-04-01,2016-03-26,2,1110132,493122,Futami gun Yakumo machi,Hokkaidou
1110133,1110133,山崎,Yamazaki,,,11101,1,493342,二海郡八雲町山崎,Futami gun Yakumo chou Yamazaki,140.2746,42.314635,0000-00-00,0000-00-00,0,1110133,493342,Futami gun Yakumo machi,Hokkaidou
1110134,1110134,黒岩,Kuroiwa,,,11101,1,493341,二海郡八雲町黒岩,Futami gun Yakumo chou Kuroiwa,140.288173,42.368296,0000-00-00,0000-00-00,0,1110134,493341,Futami gun Yakumo machi,Hokkaidou
1110135,1110135,北豊津,Kita Toyotsu,,,11101,1,493464,山越郡長万部町字豊津,Yamakoshi gun Oshamanbe chou ji Toyotsu,140.297868,42.400969,1944-07-01,2017-03-04,2,1110135,493464,Yamakoshi gun Oshamanbe machi,Hokkaidou
1110136,1110136,国縫,Kuni nui,,,11101,1,493462,山越郡長万部町字国縫,Yamakoshi gun Oshamanbe chou jikoku nui,140.320885,42.439319,0000-00-00,0000-00-00,0,1110136,493462,Yamakoshi gun Oshamanbe machi,Hokkaidou
1110137,1110137,中ノ沢,Nakanosawa,,,11101,1,493512,山越郡長万部町字中の沢,Yamakoshi gun Oshamanbe chou jichuu no Sawa,140.346077,42.477928,0000-00-00,2024-03-16,2,1110137,493512,Yamakoshi gun Oshamanbe machi,Hokkaidou
1110138,1110138,長万部,Oshamanbe,,,11101,1,493521,山越郡長万部町字長万部,Yamakoshi gun Oshamanbe chou ji Oshamanbe,140.37507,42.512477,1903-11-03,0000-00-00,0,1110138,493521,Yamakoshi gun Oshamanbe machi,Hokkaidou
1110138,1110138,長万部,Oshamanbe,,,11101,1,493521,山越郡長万部町字長万部,Yamakoshi gun Oshamanbe chou ji Oshamanbe,140.37507,42.512477,1903-11-03,0000-00-00,0,1110138,493521,Yamakoshi gun Oshamanbe machi,Hokkaidou
1110138,1110138,長万部,Oshamanbe,,,11101,1,493521,山越郡長万部町字長万部,Yamakoshi gun Oshamanbe chou ji Oshamanbe,140.37507,42.512477,1903-11-03,0000-00-00,0,1110138,493521,Yamakoshi gun Oshamanbe machi,Hokkaidou
1110138,1110138,長万部,Oshamanbe,,,11101,1,493521,山越郡長万部町字長万部,Yamakoshi gun Oshamanbe chou ji Oshamanbe,140.37507,42.512477,1903-11-03,0000-00-00,0,1110138,493521,Yamakoshi gun Oshamanbe machi,Hokkaidou
1110138,1110138,長万部,Oshamanbe,,,11101,1,493521,山越郡長万部町字長万部,Yamakoshi gun Oshamanbe chou ji Oshamanbe,140.37507,42.512477,1903-11-03,0000-00-00,0,1110138,493521,Yamakoshi gun Oshamanbe machi,Hokkaidou
1110138,1110138,長万部,Oshamanbe,,,11101,1,493521,山越郡長万部町字長万部,Yamakoshi gun Oshamanbe chou ji Oshamanbe,140.37507,42.512477,1903-11-03,0000-00-00,0,1110138,493521,Yamakoshi gun Oshamanbe machi,Hokkaidou
1110138,1110138,長万部,Oshamanbe,,,11101,1,493521,山越郡長万部町字長万部,Yamakoshi gun Oshamanbe chou ji Oshamanbe,140.37507,42.512477,1903-11-03,0000-00-00,0,1110138,493521,Yamakoshi gun Oshamanbe machi,Hokkaidou
1110138,1110138,長万部,Oshamanbe,,,11101,1,493521,山越郡長万部町字長万部,Yamakoshi gun Oshamanbe chou ji Oshamanbe,140.37507,42.512477,1903-11-03,0000-00-00,0,1110138,493521,Yamakoshi gun Oshamanbe machi,Hokkaidou
1110138,1110138,長万部,Oshamanbe,,,11101,1,493521,山越郡長万部町字長万部,Yamakoshi gun Oshamanbe chou ji Oshamanbe,140.37507,42.512477,1903-11-03,0000-00-00,0,1110138,493521,Yamakoshi gun Oshamanbe machi,Hokkaidou
1110138,1110138,長万部,Oshamanbe,,,11101,1,493521,山越郡長万部町字長万部,Yamakoshi gun Oshamanbe chou ji Oshamanbe,140.37507,42.512477,1903-11-03,0000-00-00,0,1110138,493521,Yamakoshi gun Oshamanbe machi,Hokkaidou
1110138,1110138,長万部,Oshamanbe,,,11101,1,493521,山越郡長万部町字長万部,Yamakoshi gun Oshamanbe chou ji Oshamanbe,140.37507,42.512477,1903-11-03,0000-00-00,0,1110138,493521,Yamakoshi gun Oshamanbe machi,Hokkaidou
1110201,1110138,長万部,Oshamanbe,,,11102,1,493521,山越郡長万部町字長万部,Yamakoshi gun Oshamanbe chou ji Oshamanbe,140.37507,42.512477,0000-00-00,0000-00-00,0,1110201,493521,Yamakoshi gun Oshamanbe machi,Hokkaidou
1110201,1110138,長万部,Oshamanbe,,,11102,1,493521,山越郡長万部町字長万部,Yamakoshi gun Oshamanbe chou ji Oshamanbe,140.37507,42.512477,0000-00-00,0000-00-00,0,1110201,493521,Yamakoshi gun Oshamanbe machi,Hokkaidou
1110201,1110138,長万部,Oshamanbe,,,11102,1,493521,山越郡長万部町字長万部,Yamakoshi gun Oshamanbe chou ji Oshamanbe,140.37507,42.512477,0000-00-00,0000-00-00,0,1110201,493521,Yamakoshi gun Oshamanbe machi,Hokkaidou
1110201,1110138,長万部,Oshamanbe,,,11102,1,493521,山越郡長万部町字長万部,Yamakoshi gun Oshamanbe chou ji Oshamanbe,140.37507,42.512477,0000-00-00,0000-00-00,0,1110201,493521,Yamakoshi gun Oshamanbe machi,Hokkaidou
1110201,1110138,長万部,Oshamanbe,,,11102,1,493521,山越郡長万部町字長万部,Yamakoshi gun Oshamanbe chou ji Oshamanbe,140.37507,42.512477,0000-00-00,0000-00-00,0,1110201,493521,Yamakoshi gun Oshamanbe machi,Hokkaidou
1110201,1110138,長万部,Oshamanbe,,,11102,1,493521,山越郡長万部町字長万部,Yamakoshi gun Oshamanbe chou ji Oshamanbe,140.37507,42.512477,0000-00-00,0000-00-00,0,1110201,493521,Yamakoshi gun Oshamanbe machi,Hokkaidou
1110201,1110138,長万部,Oshamanbe,,,11102,1,493521,山越郡長万部町字長万部,Yamakoshi gun Oshamanbe chou ji Oshamanbe,140.37507,42.512477,0000-00-00,0000-00-00,0,1110201,493521,Yamakoshi gun Oshamanbe machi,Hokkaidou
1110201,1110138,長万部,Oshamanbe,,,11102,1,493521,山越郡長万部町字長万部,Yamakoshi gun Oshamanbe chou ji Oshamanbe,140.37507,42.512477,0000-00-00,0000-00-00,0,1110201,493521,Yamakoshi gun Oshamanbe machi,Hokkaidou
1110201,1110138,長万部,Oshamanbe,,,11102,1,493521,山越郡長万部町字長万部,Yamakoshi gun Oshamanbe chou ji Oshamanbe,140.37507,42.512477,0000-00-00,0000-00-00,0,1110201,493521,Yamakoshi gun Oshamanbe machi,Hokkaidou
1110201,1110138,長万部,Oshamanbe,,,11102,1,493521,山越郡長万部町字長万部,Yamakoshi gun Oshamanbe chou ji Oshamanbe,140.37507,42.512477,0000-00-00,0000-00-00,0,1110201,493521,Yamakoshi gun Oshamanbe machi,Hokkaidou
1110201,1110138,長万部,Oshamanbe,,,11102,1,493521,山越郡長万部町字長万部,Yamakoshi gun Oshamanbe chou ji Oshamanbe,140.37507,42.512477,0000-00-00,0000-00-00,0,1110201,493521,Yamakoshi gun Oshamanbe machi,Hokkaidou
1110202,1110202,二股,Futamata,,,11102,1,493501,山越郡長万部町字双葉,Yamakoshi gun Oshamanbe chou ji futaba,140.320821,42.575869,0000-00-00,0000-00-00,0,1110202,493501,Yamakoshi gun Oshamanbe machi,Hokkaidou
1110202,1110202,二股,Futamata,,,11102,1,493501,山越郡長万部町字双葉,Yamakoshi gun Oshamanbe chou ji futaba,140.320821,42.575869,0000-00-00,0000-00-00,0,1110202,493501,Yamakoshi gun Oshamanbe machi,Hokkaidou
1110203,1110203,蕨岱,Warabitai,,,11102,1,493503,山越郡長万部町字蕨岱,Yamakoshi gun Oshamanbe chou ji Warabitai,140.313353,42.626353,1904-10-15,2017-03-04,2,1110203,493503,Yamakoshi gun Oshamanbe machi,Hokkaidou
1110204,1110204,黒松内,Kuromatsunai,,,11102,1,480101,寿都郡黒松内町字黒松内,Suttsu gun Kuromatsunai chou ji Kuromatsunai,140.305704,42.669608,0000-00-00,0000-00-00,0,1110204,480101,Suttsu gun Kuromatsunai machi,Hokkaidou
1110205,1110205,熱郛,Netsu ?,,,11102,1,480134,寿都郡黒松内町字白井川,Suttsu gun Kuromatsunai chou ji Shiroi kawa,140.375084,42.675653,0000-00-00,0000-00-00,0,1110205,480134,Suttsu gun Kuromatsunai machi,Hokkaidou
1110206,1110206,目名,Mokumei,,,11102,1,481261,磯谷郡蘭越町目名町,Isoya gun Rankoshi chou mokumei chou,140.465742,42.761432,0000-00-00,0000-00-00,0,1110206,481261,Isoya gun Rankoshi machi,Hokkaidou
1110207,1110207,蘭越,Rankoshi,,,11102,1,481301,磯谷郡蘭越町蘭越町,Isoya gun Rankoshi chou Rankoshi machi,140.52894,42.804542,0000-00-00,0000-00-00,0,1110207,481301,Isoya gun Rankoshi machi,Hokkaidou
1110208,1110208,昆布,Konbu,,,11102,1,481302,磯谷郡蘭越町昆布町,Isoya gun Rankoshi chou konbu chou,140.596107,42.797984,0000-00-00,0000-00-00,0,1110208,481302,Isoya gun Rankoshi machi,Hokkaidou
1110209,1110209,ニセコ,Niseko,,,11102,1,481512,虻田郡ニセコ町字中央通,Abuta gun Niseko chou ji Chuuou toori,140.684588,42.808746,0000-00-00,0000-00-00,0,1110209,481512,Abuta gun Niseko machi,Hokkaidou
1110210,1110210,比羅夫,Hirafu,,,11102,1,440077,虻田郡倶知安町比羅夫,Abuta gun Kutchan chou Hirafu,140.722615,42.84856,0000-00-00,0000-00-00,0,1110210,440077,Abuta gun Kutchan machi,Hokkaidou
1110211,1110211,倶知安,Kutchan,,,11102,1,440051,虻田郡倶知安町北三条西４丁目,Abuta gun Kutchan chou hoku Sanjou nishi 4 choume,140.745471,42.90164,0000-00-00,0000-00-00,0,1110211,440051,Abuta gun Kutchan machi,Hokkaidou
1110212,1110212,小沢,Ozawa,,,11102,1,482142,岩内郡共和町小沢,Iwanai gun kyouwa chou Ozawa,140.677657,42.97185,0000-00-00,0000-00-00,0,1110212,482142,Iwanai gun kyouwa chou,Hokkaidou
1110213,1110213,銀山,Ginzan,,,11102,1,482335,余市郡仁木町銀山２丁目,Yoichi gun Niki chou ginzan 2 choume,140.715321,43.040888,0000-00-00,0000-00-00,0,1110213,482335,Yoichi gun Niki machi,Hokkaidou
1110214,1110214,然別,Sa betsu,,,11102,1,482403,余市郡仁木町然別,Yoichi gun Niki chouzen betsu,140.737211,43.12551,0000-00-00,0000-00-00,0,1110214,482403,Yoichi gun Niki machi,Hokkaidou
1110215,1110215,仁木,Niki,,,11102,1,482405,余市郡仁木町字北町１丁目,Yoichi gun Niki chou ji Kitamachi 1 choume,140.770546,43.154091,0000-00-00,0000-00-00,0,1110215,482405,Yoichi gun Niki machi,Hokkaidou
1110216,1110216,余市,Yoichi,,,11102,1,460003,余市郡余市町黒川町５丁目,Yoichi gun Yoichi chou Kurokawa chou 5 choume,140.794686,43.186558,0000-00-00,0000-00-00,0,1110216,460003,Yoichi gun Yoichi machi,Hokkaidou
1110217,1110217,蘭島,Olandatou,,,11102,1,482562,小樽市蘭島１丁目,Otaru shi Olandatou 1 choume,140.854643,43.19651,0000-00-00,0000-00-00,0,1110217,482562,Otaru shi,Hokkaidou
1110218,1110218,塩谷,Shiotani,,,11102,1,482672,小樽市塩谷２丁目,Otaru shi Shioya 2 choume,140.924546,43.202406,0000-00-00,0000-00-00,0,1110218,482672,Otaru shi,Hokkaidou
1110219,1110219,小樽,Otaru,,,11102,1,470032,小樽市稲穂２丁目,Otaru shi inaho 2 choume,140.993653,43.197172,0000-00-00,0000-00-00,0,1110219,470032,Otaru shi,Hokkaidou
1110301,1110219,小樽,Otaru,,,11103,1,470032,小樽市稲穂２丁目,Otaru shi inaho 2 choume,140.993653,43.197172,0000-00-00,0000-00-00,0,1110301,470032,Otaru shi,Hokkaidou
1110302,1110302,南小樽,Minami Otaru,,,11103,1,470015,小樽市住吉町,Otaru shi Sumiyoshi machi,141.007883,43.186529,0000-00-00,0000-00-00,0,1110302,470015,Otaru shi,Hokkaidou
1110303,1110303,小樽築港,Otaru chikkou,,,11103,1,470008,小樽市築港,Otaru shi chikkou,141.029051,43.180752,0000-00-00,0000-00-00,0,1110303,470008,Otaru shi,Hokkaidou
1110304,1110304,朝里,Asa sato,,,11103,1,470151,小樽市朝里１丁目,Otaru shi asa sato 1 choume,141.063923,43.176868,0000-00-00,0000-00-00,0,1110304,470151,Otaru shi,Hokkaidou
1110305,1110305,銭函,Sen bako,,,11103,1,470261,小樽市銭函２丁目,Otaru shi sen bako 2 choume,141.159868,43.143403,0000-00-00,0000-00-00,0,1110305,470261,Otaru shi,Hokkaidou
1110306,1110306,ほしみ,Ho shimi,,,11103,1,60859,札幌市手稲区手稲星置１条９丁目,Sapporo shi Teine ku Teine hoshi oke 1 jou 9 choume,141.191402,43.13373,0000-00-00,0000-00-00,0,1110306,60859,Sapporo shi Teine ku,Hokkaidou
1110307,1110307,星置,Hoshi oke,,,11103,1,60851,札幌市手稲区星置１条３丁目,Sapporo shi Teine kusei oke 1 jou 3 choume,141.210856,43.132375,0000-00-00,0000-00-00,0,1110307,60851,Sapporo shi Teine ku,Hokkaidou
1110308,1110308,稲穂,Inaho,,,11103,1,60831,札幌市手稲区曙１条３丁目,Sapporo shi Teine ku akebono 1 jou 3 choume,141.222919,43.128115,0000-00-00,0000-00-00,0,1110308,60831,Sapporo shi Teine ku,Hokkaidou
1110309,1110309,手稲,Teine,,,11103,1,60021,札幌市手稲区手稲本町１条４丁目,Sapporo shi Teine ku Teine Honchou 1 jou 4 choume,141.243785,43.120238,0000-00-00,0000-00-00,0,1110309,60021,Sapporo shi Teine ku,Hokkaidou
1110310,1110310,稲積公園,Inazumi kouen,,,11103,1,60011,札幌市手稲区富丘１条４丁目,Sapporo shi Teine ku Tomioka 1 jou 4 choume,141.257113,43.112023,0000-00-00,0000-00-00,0,1110310,60011,Sapporo shi Teine ku,Hokkaidou
1110311,1110311,発寒,Hassamu,,,11103,1,630829,札幌市西区発寒９条１３丁目,Sapporo shi Nishi ku Hassamu 9 jou 13 choume,141.277273,43.099819,0000-00-00,0000-00-00,0,1110311,630829,Sapporo shi Nishi ku,Hokkaidou
1110312,1110312,発寒中央,Hassamu chuuou,,,11103,1,630826,札幌市西区発寒十条３丁目,Sapporo shi Nishi ku Hassamu Juujou 3 choume,141.294497,43.089271,0000-00-00,0000-00-00,0,1110312,630826,Sapporo shi Nishi ku,Hokkaidou
1110313,1110313,琴似,Kotoni,,,11103,1,630812,札幌市西区琴似2条2丁目,Sapporo shi Nishi ku Kotoni 2 jou 2 choume,141.307418,43.081599,0000-00-00,0000-00-00,0,1110313,630812,Sapporo shi Nishi ku,Hokkaidou
1110314,1110314,桑園,Souen,,,11103,1,600011,札幌市中央区北１１条西１５丁目,Sapporo shi Chuuou ku kita 11 jou nishi 15 choume,141.332036,43.070744,0000-00-00,0000-00-00,0,1110314,600011,Sapporo shi Chuuou ku,Hokkaidou
1110315,1110315,札幌,Sapporo,,,11103,1,600806,札幌市北区北６条西４丁目,Sapporo shi Kita ku kita 6 jou nishi 4 choume,141.350768,43.068612,0000-00-00,0000-00-00,0,1110315,600806,Sapporo shi Kita ku,Hokkaidou
1110316,1110316,苗穂,Naebo,,,11103,1,600033,札幌市中央区北３条東１３丁目,Sapporo shi Chuuou ku kita 3 jou higashi 13 choume,141.377522,43.068574,0000-00-00,0000-00-00,0,1110316,600033,Sapporo shi Chuuou ku,Hokkaidou
1110317,1110317,白石,Shiraishi,,,11103,1,30029,札幌市白石区平和通3丁目北6,Sapporo shi Shiraishi ku heiwa tsuu 3 choume kita 6,141.413612,43.054715,1903-04-21,0000-00-00,0,1110317,30029,Sapporo shi Shiraishi ku,Hokkaidou
1110318,1110318,厚別,Atsubetsu,,,11103,1,40055,札幌市厚別区厚別中央５条４丁目,Sapporo shi Atsubetsu ku Atsubetsu chuuou 5 jou 4 choume,141.46369,43.045154,0000-00-00,0000-00-00,0,1110318,40055,Sapporo shi Atsubetsu ku,Hokkaidou
1110319,1110319,森林公園,Shinrin kouen,,,11103,1,40071,札幌市厚別区厚別北１条４丁目,Sapporo shi Atsubetsu ku Atsubetsu kita 1 jou 4 choume,141.481332,43.056456,0000-00-00,0000-00-00,0,1110319,40071,Sapporo shi Atsubetsu ku,Hokkaidou
1110320,1110320,大麻,Taima,,,11103,1,690854,江別市大麻中町,Ebetsu shi taima Nakachou,141.496925,43.072382,0000-00-00,0000-00-00,0,1110320,690854,Ebetsu shi,Hokkaidou
1110321,1110321,野幌,Nopporo,,,11103,1,690813,江別市野幌町,Ebetsu shi Nopporo machi,141.52984,43.092559,0000-00-00,0000-00-00,0,1110321,690813,Ebetsu shi,Hokkaidou
1110322,1110322,高砂,Takasago,,,11103,1,670074,江別市高砂町,Ebetsu shi Takasagochou,141.540752,43.100084,0000-00-00,0000-00-00,0,1110322,670074,Ebetsu shi,Hokkaidou
1110323,1110323,江別,Ebetsu,,,11103,1,670071,江別市萩ケ岡,Ebetsu shi Hagi ke oka,141.55679,43.110189,0000-00-00,0000-00-00,0,1110323,670071,Ebetsu shi,Hokkaidou
1110324,1110324,豊幌,Yutaka horo,,,11103,1,670021,江別市豊幌,Ebetsu shi Yutaka horo,141.62466,43.136446,0000-00-00,0000-00-00,0,1110324,670021,Ebetsu shi,Hokkaidou
1110325,1110325,幌向,Horomui,,,11103,1,690371,岩見沢市幌向南１条３丁目,Iwamizawa shi Horomui minami 1 jou 3 choume,141.655839,43.151348,0000-00-00,0000-00-00,0,1110325,690371,Iwamizawa shi,Hokkaidou
1110326,1110326,上幌向,Ue Horomui,,,11103,1,690362,岩見沢市上幌向南１条４丁目,Iwamizawa shijou Horomui minami 1 jou 4 choume,141.715391,43.18183,0000-00-00,0000-00-00,0,1110326,690362,Iwamizawa shi,Hokkaidou
1110327,1110327,岩見沢,Iwamizawa,,,11103,1,680034,岩見沢市有明町南,Iwamizawa shi Ariake machi minami,141.759359,43.204201,0000-00-00,0000-00-00,0,1110327,680034,Iwamizawa shi,Hokkaidou
1110328,1110328,峰延,Mine nobe,,,11103,1,720000,美唄市峰延,Bibai shi Mine nobe,141.814673,43.264694,0000-00-00,0000-00-00,0,1110328,720000,Bibai shi,Hokkaidou
1110329,1110329,光珠内,Hikari tamanai,,,11103,1,720000,美唄市光珠内,Bibai shi Hikari tamanai,141.844655,43.292658,0000-00-00,0000-00-00,0,1110329,720000,Bibai shi,Hokkaidou
1110330,1110330,美唄,Bibai,,,11103,1,720012,美唄市東一条南２丁目,Bibai shi higashi Ichijou minami 2 choume,141.862157,43.330751,0000-00-00,0000-00-00,0,1110330,720012,Bibai shi,Hokkaidou
1110331,1110331,茶志内,Chashinai,,,11103,1,790261,美唄市茶志内町,Bibai shi Chashinai machi,141.87336,43.369842,0000-00-00,0000-00-00,0,1110331,790261,Bibai shi,Hokkaidou
1110332,1110332,奈井江,Naie,,,11103,1,790313,空知郡奈井江町本町１区,Sorachi gun Naie chou Honchou 1 ku,141.889115,43.423718,0000-00-00,0000-00-00,0,1110332,790313,Sorachi gun Naie machi,Hokkaidou
1110333,1110333,豊沼,Yutaka numa,,,11103,1,730138,砂川市豊沼町,Sunagawa shi Yutaka numa machi,141.901032,43.464224,0000-00-00,0000-00-00,0,1110333,730138,Sunagawa shi,Hokkaidou
1110334,1110334,砂川,Sunagawa,,,11103,1,730152,砂川市東２条北２丁目,Sunagawa shi higashi 2 jou kita 2 choume,141.909642,43.493468,0000-00-00,0000-00-00,0,1110334,730152,Sunagawa shi,Hokkaidou
1110335,1110335,滝川,Takigawa,,,11103,1,730031,滝川市栄町４丁目,Takigawa shi Sakaechou 4 choume,141.900807,43.555278,0000-00-00,0000-00-00,0,1110335,730031,Takigawa shi,Hokkaidou
1110336,1110336,江部乙,Ebe otsu,,,11103,1,790462,滝川市江部乙町西町１２丁目,Takigawa Ichie bu otsu chou Nishimachi 12 choume,141.935937,43.627564,0000-00-00,0000-00-00,0,1110336,790462,Takigawa shi,Hokkaidou
1110337,1110337,妹背牛,Moseushi,,,11103,1,790500,雨竜郡妹背牛町字妹背牛,Uryuu gun Moseushi chou ji Moseushi,141.966591,43.690841,0000-00-00,0000-00-00,0,1110337,790500,Uryuu gun Moseushi machi,Hokkaidou
1110338,1110338,深川,Fukagawa,,,11103,1,740001,深川市１条,Fukagawa shi 1 jou,142.041642,43.721021,0000-00-00,0000-00-00,0,1110338,740001,Fukagawa shi,Hokkaidou
1110339,1110339,納内,Osamenai,,,11103,1,780151,深川市納内町字納内,Fukagawa shi osamenai chou ji osamenai,142.130072,43.732509,0000-00-00,0000-00-00,0,1110339,780151,Fukagawa shi,Hokkaidou
1110340,1110340,伊納,I Osamu,,,11103,1,708052,旭川市江丹別町春日,Asahikawa Ichie tan betsu chou shunjitsu,142.27167,43.763305,1898-07-16,2021-03-13,2,1110340,708052,Asahikawa shi,Hokkaidou
1110341,1110341,近文,Chikabumi,,,11103,1,700821,旭川市近文町１９丁目,Asahikawa shi Chikabumichou 19 choume,142.325327,43.789193,0000-00-00,0000-00-00,0,1110341,700821,Asahikawa shi,Hokkaidou
1110342,1110342,旭川,Asahikawa,,,11103,1,700030,旭川市宮下通８丁目,Asahikawa shi Miyashitadoori 8 choume,142.357803,43.763492,0000-00-00,0000-00-00,0,1110342,700030,Asahikawa shi,Hokkaidou
1110401,1110138,長万部,Oshamanbe,,,11104,1,493521,山越郡長万部町字長万部,Yamakoshi gun Oshamanbe chou ji Oshamanbe,140.37507,42.512477,0000-00-00,0000-00-00,0,1110401,493521,Yamakoshi gun Oshamanbe machi,Hokkaidou
1110401,1110138,長万部,Oshamanbe,,,11104,1,493521,山越郡長万部町字長万部,Yamakoshi gun Oshamanbe chou ji Oshamanbe,140.37507,42.512477,0000-00-00,0000-00-00,0,1110401,493521,Yamakoshi gun Oshamanbe machi,Hokkaidou
1110401,1110138,長万部,Oshamanbe,,,11104,1,493521,山越郡長万部町字長万部,Yamakoshi gun Oshamanbe chou ji Oshamanbe,140.37507,42.512477,0000-00-00,0000-00-00,0,1110401,493521,Yamakoshi gun Oshamanbe machi,Hokkaidou
1110401,1110138,長万部,Oshamanbe,,,11104,1,493521,山越郡長万部町字長万部,Yamakoshi gun Oshamanbe chou ji Oshamanbe,140.37507,42.512477,0000-00-00,0000-00-00,0,1110401,493521,Yamakoshi gun Oshamanbe machi,Hokkaidou
1110401,1110138,長万部,Oshamanbe,,,11104,1,493521,山越郡長万部町字長万部,Yamakoshi gun Oshamanbe chou ji Oshamanbe,140.37507,42.512477,0000-00-00,0000-00-00,0,1110401,493521,Yamakoshi gun Oshamanbe machi,Hokkaidou
1110401,1110138,長万部,Oshamanbe,,,11104,1,493521,山越郡長万部町字長万部,Yamakoshi gun Oshamanbe chou ji Oshamanbe,140.37507,42.512477,0000-00-00,0000-00-00,0,1110401,493521,Yamakoshi gun Oshamanbe machi,Hokkaidou
1110401,1110138,長万部,Oshamanbe,,,11104,1,493521,山越郡長万部町字長万部,Yamakoshi gun Oshamanbe chou ji Oshamanbe,140.37507,42.512477,0000-00-00,0000-00-00,0,1110401,493521,Yamakoshi gun Oshamanbe machi,Hokkaidou
1110401,1110138,長万部,Oshamanbe,,,11104,1,493521,山越郡長万部町字長万部,Yamakoshi gun Oshamanbe chou ji Oshamanbe,140.37507,42.512477,0000-00-00,0000-00-00,0,1110401,493521,Yamakoshi gun Oshamanbe machi,Hokkaidou
1110401,1110138,長万部,Oshamanbe,,,11104,1,493521,山越郡長万部町字長万部,Yamakoshi gun Oshamanbe chou ji Oshamanbe,140.37507,42.512477,0000-00-00,0000-00-00,0,1110401,493521,Yamakoshi gun Oshamanbe machi,Hokkaidou
1110401,1110138,長万部,Oshamanbe,,,11104,1,493521,山越郡長万部町字長万部,Yamakoshi gun Oshamanbe chou ji Oshamanbe,140.37507,42.512477,0000-00-00,0000-00-00,0,1110401,493521,Yamakoshi gun Oshamanbe machi,Hokkaidou
1110401,1110138,長万部,Oshamanbe,,,11104,1,493521,山越郡長万部町字長万部,Yamakoshi gun Oshamanbe chou ji Oshamanbe,140.37507,42.512477,0000-00-00,0000-00-00,0,1110401,493521,Yamakoshi gun Oshamanbe machi,Hokkaidou
1110402,1110402,静狩,Seikari,,,11104,1,495141,山越郡長万部町字静狩,Yamakoshi gun Oshamanbe chou ji sei kari,140.460025,42.584065,0000-00-00,0000-00-00,0,1110402,495141,Yamakoshi gun Oshamanbe machi,Hokkaidou
1110403,1110403,小幌,Kohoro,,,11104,1,495333,虻田郡豊浦町字礼文華,Abuta gun Toyoura chou ji rei bunka,140.537361,42.589731,0000-00-00,0000-00-00,0,1110403,495333,Abuta gun Toyoura machi,Hokkaidou
1110404,1110404,礼文,Reibun,,,11104,1,495333,虻田郡豊浦町字礼文華,Abuta gun Toyoura chou ji rei bunka,140.595013,42.580422,0000-00-00,0000-00-00,0,1110404,495333,Abuta gun Toyoura machi,Hokkaidou
1110405,1110405,大岸,Oogishi,,,11104,1,495332,虻田郡豊浦町字大岸,Abuta gun Toyoura chou jidaigan,140.639036,42.585969,0000-00-00,0000-00-00,0,1110405,495332,Abuta gun Toyoura machi,Hokkaidou
1110406,1110406,豊浦,Toyoura,,,11104,1,495412,虻田郡豊浦町字旭町,Abuta gun Toyoura chou ji Asahichou,140.71536,42.580323,0000-00-00,0000-00-00,0,1110406,495412,Abuta gun Toyoura machi,Hokkaidou
1110407,1110407,洞爺,Touya,,,11104,1,495611,虻田郡洞爺湖町旭町,Abuta gun Touyako chou Asahichou,140.763959,42.55055,0000-00-00,0000-00-00,0,1110407,495611,Abuta gun Touyako machi,Hokkaidou
1110408,1110408,有珠,Usu,,,11104,1,590151,伊達市有珠町,Date shi Usu machi,140.793969,42.513267,0000-00-00,0000-00-00,0,1110408,590151,Date shi,Hokkaidou
1110409,1110409,長和,Chouwa,,,11104,1,520035,伊達市長和町,Date shi Nagawa machi,140.833783,42.488262,0000-00-00,0000-00-00,0,1110409,520035,Date shi,Hokkaidou
1110410,1110410,伊達紋別,Date Monbetsu,,,11104,1,520032,伊達市山下町,Date shi Yamashitachou,140.855802,42.469395,0000-00-00,0000-00-00,0,1110410,520032,Date shi,Hokkaidou
1110411,1110411,北舟岡,Kita Funaoka,,,11104,1,520014,伊達市舟岡町,Date shi Funaoka machi,140.880259,42.450528,0000-00-00,0000-00-00,0,1110411,520014,Date shi,Hokkaidou
1110412,1110412,稀府,Kifu,,,11104,1,590273,伊達市南稀府町,Date shi minami kifu chou,140.898836,42.425567,0000-00-00,0000-00-00,0,1110412,590273,Date shi,Hokkaidou
1110413,1110413,黄金,Ougon,,,11104,1,590271,伊達市南黄金町,Date shi minami Koganechou,140.907781,42.386441,0000-00-00,0000-00-00,0,1110413,590271,Date shi,Hokkaidou
1110414,1110414,崎守,Saki Mamoru,,,11104,1,500055,室蘭市崎守町,Muroran Ichizaki Mamoru machi,140.927141,42.373968,0000-00-00,0000-00-00,0,1110414,500055,Muroran shi,Hokkaidou
1110415,1110415,本輪西,HonWanishi,,,11104,1,500065,室蘭市本輪西町１丁目,Muroran shi hon Wanishi chou 1 choume,140.977561,42.358734,0000-00-00,0000-00-00,0,1110415,500065,Muroran shi,Hokkaidou
1110416,1110416,室蘭,Muroran,,,11104,1,510023,室蘭市入江町１,Muroran shi Irie chou 1,140.97571,42.317864,0000-00-00,0000-00-00,0,1110416,510023,Muroran shi,Hokkaidou
1110417,1110417,母恋,Haha koi,,,11104,1,510004,室蘭市母恋北町１丁目,Muroran shi haha koi Kitamachi 1 choume,140.990018,42.317295,0000-00-00,0000-00-00,0,1110417,510004,Muroran shi,Hokkaidou
1110418,1110418,御崎,Misaki,,,11104,1,510001,室蘭市御崎町２丁目,Muroran shi misaki machi 2 choume,140.993881,42.329014,0000-00-00,0000-00-00,0,1110418,510001,Muroran shi,Hokkaidou
1110419,1110419,輪西,Wanishi,,,11104,1,500087,室蘭市仲町,Muroran shi Nakachou,141.005743,42.333775,0000-00-00,0000-00-00,0,1110419,500087,Muroran shi,Hokkaidou
1110420,1110420,東室蘭,Higashi Muroran,,,11104,1,500083,室蘭市東町２丁目,Muroran shi Higashi chou 2 choume,141.026411,42.349374,0000-00-00,0000-00-00,0,1110420,500083,Muroran shi,Hokkaidou
1110421,1110421,鷲別,Washi betsu,,,11104,1,590034,登別市鷲別町２丁目,Noboribetsu shi washi betsu chou 2 choume,141.042759,42.35953,0000-00-00,0000-00-00,0,1110421,590034,Noboribetsu shi,Hokkaidou
1110422,1110422,幌別,Horobetsu,,,11104,1,590013,登別市幌別町３丁目,Noboribetsu shi Horobetsu chou 3 choume,141.107293,42.409782,0000-00-00,0000-00-00,0,1110422,590013,Noboribetsu shi,Hokkaidou
1110423,1110423,富浦,Tomiura,,,11104,1,590462,登別市富浦町１丁目,Noboribetsu shi Tomiura chou 1 choume,141.156878,42.441957,0000-00-00,0000-00-00,0,1110423,590462,Noboribetsu shi,Hokkaidou
1110424,1110424,登別,Noboribetsu,,,11104,1,590466,登別市登別港町１丁目,Noboribetsu shi Noboribetsu minatomachi 1 choume,141.180931,42.45207,0000-00-00,0000-00-00,0,1110424,590466,Noboribetsu shi,Hokkaidou
1110425,1110425,虎杖浜,Itadori hama,,,11104,1,590641,白老郡白老町字虎杖浜,Shiraoi gun Shiraoi chou ji itadori hama,141.215092,42.464695,0000-00-00,0000-00-00,0,1110425,590641,Shiraoi gun Shiraoi machi,Hokkaidou
1110426,1110426,竹浦,Take ura,,,11104,1,590642,白老郡白老町字竹浦,Shiraoi gun Shiraoi chou ji take ura,141.260395,42.49284,0000-00-00,0000-00-00,0,1110426,590642,Shiraoi gun Shiraoi machi,Hokkaidou
1110427,1110427,北吉原,Kita Yoshiwara,,,11104,1,590923,白老郡白老町字北吉原,Shiraoi gun Shiraoi chou ji kita Yoshiwara,141.286199,42.509119,0000-00-00,0000-00-00,0,1110427,590923,Shiraoi gun Shiraoi machi,Hokkaidou
1110428,1110428,萩野,Hagino,,,11104,1,590922,白老郡白老町字萩野,Shiraoi gun Shiraoi chou ji Hagino,141.30603,42.521159,0000-00-00,0000-00-00,0,1110428,590922,Shiraoi gun Shiraoi machi,Hokkaidou
1110429,1110429,白老,Shiraoi,,,11104,1,590904,白老郡白老町東町１丁目,Shiraoi gun Shiraoi chou Higashi chou 1 choume,141.360054,42.55474,0000-00-00,0000-00-00,0,1110429,590904,Shiraoi gun Shiraoi machi,Hokkaidou
1110430,1110430,社台,Yashirodai,,,11104,1,590901,白老郡白老町字社台,Shiraoi gun Shiraoi chou ji sha dai,141.417433,42.578682,0000-00-00,0000-00-00,0,1110430,590901,Shiraoi gun Shiraoi machi,Hokkaidou
1110431,1110431,錦岡,Nishiki oka,,,11104,1,591275,苫小牧市字錦岡,Tomakomai shi jikin Oka,141.48722,42.6025,0000-00-00,0000-00-00,0,1110431,591275,Tomakomai shi,Hokkaidou
1110432,1110432,糸井,Itoi,,,11104,1,530816,苫小牧市日吉町３丁目,Tomakomai shi Hiyoshi chou 3 choume,141.546187,42.6225,0000-00-00,0000-00-00,0,1110432,530816,Tomakomai shi,Hokkaidou
1110433,1110433,青葉,Aoba,,,11104,1,530807,苫小牧市青葉町１丁目,Tomakomai shi Aoba chou 1 choume,141.568278,42.62999,0000-00-00,0000-00-00,0,1110433,530807,Tomakomai shi,Hokkaidou
1110434,1110434,苫小牧,Tomakomai,,,11104,1,530022,苫小牧市表町６丁目,Tomakomai shi Omotechou 6 choume,141.596837,42.639665,0000-00-00,0000-00-00,0,1110434,530022,Tomakomai shi,Hokkaidou
1110501,1110434,苫小牧,Tomakomai,,,11105,1,530022,苫小牧市表町６丁目,Tomakomai shi Omotechou 6 choume,141.596837,42.639665,0000-00-00,0000-00-00,0,1110501,530022,Tomakomai shi,Hokkaidou
1110502,1110502,沼ノ端,Numa no hashi,,,11105,1,591364,苫小牧市字沼ノ端,Tomakomai shi ji numa no hashi,141.693132,42.672057,0000-00-00,0000-00-00,0,1110502,591364,Tomakomai shi,Hokkaidou
1110503,1110503,遠浅,Tooasa,,,11105,1,591433,勇払郡安平町遠浅,Yuufutsu gun Abira machi tooasa,141.769568,42.729533,0000-00-00,0000-00-00,0,1110503,591433,Yuufutsu gun Abira machi,Hokkaidou
1110504,1110504,早来,Hayakita,,,11105,1,591501,勇払郡安平町早来大町,Yuufutsu gun Abira chou Hayakita Oomachi,141.814106,42.765237,0000-00-00,0000-00-00,0,1110504,591501,Yuufutsu gun Abira machi,Hokkaidou
1110505,1110505,安平,Abira,,,11105,1,591511,勇払郡安平町安平,Yuufutsu gun Abira chou Abira,141.825283,42.814007,0000-00-00,0000-00-00,0,1110505,591511,Yuufutsu gun Abira machi,Hokkaidou
1110506,1110506,追分,Oiwake,,,11105,1,591931,勇払郡安平町追分中央,Yuufutsu gun Abira machi oiwake chuuou,141.810678,42.873316,0000-00-00,0000-00-00,0,1110506,591931,Yuufutsu gun Abira machi,Hokkaidou
1110507,1110507,三川,Sansen,,,11105,1,691200,夕張郡由仁町三川,Yuubari gun Yuni chou Mikawa,141.800778,42.945029,0000-00-00,0000-00-00,0,1110507,691200,Yuubari gun Yuni machi,Hokkaidou
1110508,1110508,古山,Furuyama,,,11105,1,691216,夕張郡由仁町字古山,Yuubari gun Yuni chou ji Furuyama,141.793969,42.975256,0000-00-00,0000-00-00,0,1110508,691216,Yuubari gun Yuni machi,Hokkaidou
1110509,1110509,由仁,Yuni,,,11105,1,691216,夕張郡由仁町古山,Yuubari gun Yuni chou Furuyama,141.785868,43.012206,0000-00-00,0000-00-00,0,1110509,691216,Yuubari gun Yuni machi,Hokkaidou
1110510,1110510,栗山,Kuriyama,,,11105,1,691511,夕張郡栗山町中央３丁目,Yuubari gun Kuriyama chou chuuou 3 choume,141.775603,43.058164,0000-00-00,0000-00-00,0,1110510,691511,Yuubari gun Kuriyama machi,Hokkaidou
1110511,1110511,栗丘,Ritsu Takashi,,,11105,1,680134,岩見沢市栗沢町栗丘,Iwamizawa shi Kurisawa chou Ritsu Takashi,141.744333,43.085444,0000-00-00,0000-00-00,0,1110511,680134,Iwamizawa shi,Hokkaidou
1110512,1110512,栗沢,Kurisawa,,,11105,1,680127,岩見沢市栗沢町本町,Iwamizawa shi Kurisawa chou Honchou,141.739743,43.120367,0000-00-00,0000-00-00,0,1110512,680127,Iwamizawa shi,Hokkaidou
1110513,1110513,志文,Kokorozashi bun,,,11105,1,680841,岩見沢市志文本町１条４丁目,Iwamizawa shishi bun Honchou 1 jou 4 choume,141.744443,43.158903,0000-00-00,0000-00-00,0,1110513,680841,Iwamizawa shi,Hokkaidou
1110514,1110327,岩見沢,Iwamizawa,,,11105,1,680034,岩見沢市有明町南,Iwamizawa shi Ariake machi minami,141.759359,43.204201,0000-00-00,0000-00-00,0,1110514,680034,Iwamizawa shi,Hokkaidou
1110601,1110335,滝川,Takigawa,,,11106,1,730031,滝川市栄町４丁目,Takigawa shi Sakaechou 4 choume,141.900807,43.555278,0000-00-00,0000-00-00,0,1110601,730031,Takigawa shi,Hokkaidou
1110602,1110602,東滝川,Higashi Takigawa,,,11106,1,730026,滝川市東滝川,Takigawa shi higashi Takigawa,141.98031,43.574037,0000-00-00,0000-00-00,0,1110602,730026,Takigawa shi,Hokkaidou
1110603,1110603,赤平,Akahira,,,11106,1,791134,赤平市泉町１丁目,Akabira shi Izumimachi 1 choume,142.048669,43.555144,0000-00-00,0000-00-00,0,1110603,791134,Akabira shi,Hokkaidou
1110604,1110604,茂尻,Mojiri,,,11106,1,791100,赤平市字茂尻町南２丁目,Akabira shi ji Mojiri machi minami 2 choume,142.082156,43.537314,0000-00-00,0000-00-00,0,1110604,791100,Akabira shi,Hokkaidou
1110605,1110605,平岸,Hiragishi,,,11106,1,791282,北海道赤平市平岸仲町１丁目,Hokkaidou Akabira shi Hiragishi Nakachou 1 choume,142.123872,43.541401,0000-00-00,0000-00-00,0,1110605,791282,Akabira shi,Hokkaidou
1110606,1110606,芦別,Ashibetsu,,,11106,1,750041,芦別市本町,Ashibetsu shi Honchou,142.184543,43.516636,0000-00-00,0000-00-00,0,1110606,750041,Ashibetsu shi,Hokkaidou
1110607,1110607,上芦別,Ue Ashibetsu,,,11106,1,791371,芦別市上芦別町,Ashibetsu shijou Ashibetsu machi,142.210855,43.48871,0000-00-00,0000-00-00,0,1110607,791371,Ashibetsu shi,Hokkaidou
1110608,1110608,野花南,Nobana minami,,,11106,1,791372,芦別市野花南町,Ashibetsu shi nobana Minamimachi,142.261772,43.474418,0000-00-00,0000-00-00,0,1110608,791372,Ashibetsu shi,Hokkaidou
1110609,1110609,島ノ下,Shima no shita,,,11106,1,760036,富良野市字島ノ下,Furano shi jitou no shita,142.350406,43.3744,1913-11-10,2017-03-04,2,1110609,760036,Furano shi,Hokkaidou
1110610,1110610,富良野,Furano,,,11106,1,760025,富良野市日の出町,Furano shi Hinode machi,142.391374,43.347114,0000-00-00,0000-00-00,0,1110610,760025,Furano shi,Hokkaidou
1110611,1110611,布部,Nuno bu,,,11106,1,760004,富良野市字布部市街地,Furano shi jifu bu shigai chi,142.400595,43.291991,0000-00-00,2024-04-01,2,1110611,760004,Furano shi,Hokkaidou
1110612,1110612,山部,Yamabe,,,11106,1,791564,北海道富良野市字山部市山部中町,Hokkaidou Furano shi ji Yamabe shisan bu Nakachou,142.381522,43.244645,0000-00-00,2024-04-01,2,1110612,791564,Furano shi,Hokkaidou
1110613,1110613,下金山,Kakinzan,,,11106,1,792132,空知郡南富良野町字下金山,Sorachi gun Minamifurano chou jika kanayama,142.415402,43.197328,0000-00-00,2024-04-01,2,1110613,792132,Sorachi gun Minamifurano machi,Hokkaidou
1110614,1110614,金山,Kanayama,,,11106,1,792131,空知郡南富良野町字金山,Sorachi gun Minamifurano chou ji Kanayama,142.416201,43.136115,0000-00-00,2024-04-01,2,1110614,792131,Sorachi gun Minamifurano machi,Hokkaidou
1110615,1110615,東鹿越,Tou ka Koshi,,,11106,1,792411,空知郡南富良野町東鹿越,Sorachi gun Minamifurano chou tou ka Koshi,142.523472,43.164011,0000-00-00,2024-04-01,2,1110615,792411,Sorachi gun Minamifurano machi,Hokkaidou
1110616,1110616,幾寅,Ikutora,,,11106,1,792401,空知郡南富良野町幾寅仲町,Sorachi gun Minamifurano chou Ikutora Nakachou,142.569474,43.161582,0000-00-00,2024-04-01,2,1110616,792401,Sorachi gun Minamifurano machi,Hokkaidou
1110616,1110616,幾寅,Ikutora,,,11106,1,792401,空知郡南富良野町幾寅仲町,Sorachi gun Minamifurano chou Ikutora Nakachou,142.569474,43.161582,0000-00-00,2024-04-01,2,1110616,792401,Sorachi gun Minamifurano machi,Hokkaidou
1110616,1110616,幾寅,Ikutora,,,11106,1,792401,空知郡南富良野町幾寅仲町,Sorachi gun Minamifurano chou Ikutora Nakachou,142.569474,43.161582,0000-00-00,2024-04-01,2,1110616,792401,Sorachi gun Minamifurano machi,Hokkaidou
1110616,1110616,幾寅,Ikutora,,,11106,1,792401,空知郡南富良野町幾寅仲町,Sorachi gun Minamifurano chou Ikutora Nakachou,142.569474,43.161582,0000-00-00,2024-04-01,2,1110616,792401,Sorachi gun Minamifurano machi,Hokkaidou
1110617,1110617,落合,Ochiai,,,11106,1,792551,空知郡南富良野町落合,Sorachi gun Minamifurano chou Ochiai,142.669104,43.125055,0000-00-00,2024-04-01,2,1110617,792551,Sorachi gun Minamifurano machi,Hokkaidou
1110618,1110618,新得,Shintoku,,,11106,1,810005,上川郡新得町本通北１丁目,Kamikawa gun Shintoku chou hondoori kita 1 choume,142.832432,43.082501,0000-00-00,0000-00-00,2,1110618,810005,Kamikawa gun Shintoku machi,Hokkaidou
1110701,1110618,新得,Shintoku,,,11107,1,810005,上川郡新得町本通北１丁目,Kamikawa gun Shintoku chou hondoori kita 1 choume,142.832432,43.082501,0000-00-00,0000-00-00,0,1110701,810005,Kamikawa gun Shintoku machi,Hokkaidou
1110702,1110702,十勝清水,Tokachi Shimizu,,,11107,1,890136,上川郡清水町本通１丁目,Kamikawa gun Shimizuchou hondoori 1 choume,142.879535,43.012892,0000-00-00,0000-00-00,0,1110702,890136,Kamikawa gun Shimizu machi,Hokkaidou
1110703,1110703,羽帯,Hanetai,,,11107,1,890356,上川郡清水町字羽帯,Kamikawa gun Shimizuchou ji hanetai,142.906646,42.957499,1958-09-10,2018-03-17,2,1110703,890356,Kamikawa gun Shimizu machi,Hokkaidou
1110704,1110704,御影,Mikage,,,11107,1,890354,上川郡清水町御影本通り１丁目,Kamikawa gun Shimizuchou Mikage hondoori 1 choume,142.935739,42.942418,0000-00-00,0000-00-00,0,1110704,890354,Kamikawa gun Shimizu machi,Hokkaidou
1110705,1110705,芽室,Memuro,,,11107,1,820030,河西郡芽室町本通り１丁目,Kasei gun Memuro chou hondoori 1 choume,143.047991,42.909846,0000-00-00,0000-00-00,0,1110705,820030,Kasei gun Memuro machi,Hokkaidou
1110706,1110706,大成,Taisei,,,11107,1,820006,河西郡芽室町東芽室南２線,Kasei gun Memuro machi higashi Memuro minami 2 sen,143.0696659,42.91605619,0000-00-00,0000-00-00,0,1110706,820006,Kasei gun Memuro machi,Hokkaidou
1110707,1110707,西帯広,Nishi Obihiro,,,11107,1,802473,帯広市西２３条南１丁目,Obihiro shi nishi 23 jou minami 1 choume,143.126351,42.923941,0000-00-00,0000-00-00,0,1110707,802473,Obihiro shi,Hokkaidou
1110708,1110708,柏林台,Hakurin dai,,,11107,1,800027,帯広市西１７条南１丁目,Obihiro shi nishi 17 jou minami 1 choume,143.1645,42.928877,0000-00-00,0000-00-00,0,1110708,800027,Obihiro shi,Hokkaidou
1110709,1110709,帯広,Obihiro,,,11107,1,800012,帯広市西２条南１２丁目,Obihiro shi nishi 2 jou minami 12 choume,143.20195,42.917997,0000-00-00,0000-00-00,0,1110709,800012,Obihiro shi,Hokkaidou
1110710,1110710,札内,Satsunai,,,11107,1,890543,中川郡幕別町字札内中央町,Nakagawa gun Makubetsu chou ji satsunai Chuuouchou,143.256248,42.912697,0000-00-00,0000-00-00,0,1110710,890543,Nakagawa gun Makubetsu machi,Hokkaidou
1110711,1110711,稲士別,Ine Shibetsu,,,11107,1,890564,中川郡幕別町稲志別,Nakagawa gun Makubetsu choutoushi betsu,143.297528,42.903963,1959-10-07,2017-03-04,2,1110711,890564,Nakagawa gun Makubetsu machi,Hokkaidou
1110712,1110712,幕別,Makubetsu,,,11107,1,890604,中川郡幕別町錦町,Nakagawa gun Makubetsu chou Nishikichou,143.359293,42.90784,0000-00-00,0000-00-00,0,1110712,890604,Nakagawa gun Makubetsu machi,Hokkaidou
1110713,1110713,利別,Toshibetsu,,,11107,1,830031,中川郡池田町字利別西町,Nakagawa gun Ikeda chou ji Toshibetsu nishi machi,143.424445,42.934706,0000-00-00,0000-00-00,0,1110713,830031,Nakagawa gun Ikeda machi,Hokkaidou
1110714,1110714,池田,Ikeda,,,11107,1,830091,中川郡池田町東１条１丁目,Nakagawa gun Ikeda machi higashi 1 jou 1 choume,143.453033,42.922186,0000-00-00,0000-00-00,0,1110714,830091,Nakagawa gun Ikeda machi,Hokkaidou
1110715,1110715,十弗,Juu ?,,,11107,1,895243,中川郡豊頃町字十弗宝町,Nakagawa gun Toyokoro chou ji juu ?? machi,143.500797,42.855781,0000-00-00,0000-00-00,0,1110715,895243,Nakagawa gun Toyokoro machi,Hokkaidou
1110716,1110716,豊頃,Toyokoro,,,11107,1,895232,中川郡豊頃町豊頃旭町,Nakagawa gun Toyokoro chou Toyokoro Asahichou,143.538615,42.817548,0000-00-00,0000-00-00,0,1110716,895232,Nakagawa gun Toyokoro machi,Hokkaidou
1110717,1110717,新吉野,ShinYoshino,,,11107,1,895541,十勝郡浦幌町字吉野,Tokachi gun Urahoro chou ji Yoshino,143.60826,42.778238,0000-00-00,0000-00-00,0,1110717,895541,Tokachi gun Urahoro machi,Hokkaidou
1110718,1110718,浦幌,Urahoro,,,11107,1,895603,十勝郡浦幌町字本町,Tokachi gun Urahoro chou ji Honchou,143.651568,42.810849,0000-00-00,0000-00-00,0,1110718,895603,Tokachi gun Urahoro machi,Hokkaidou
1110719,1110719,上厚内,Joukounai,,,11107,1,895866,十勝郡浦幌町字上厚内,Tokachi gun Urahoro chou ji joukounai,143.749788,42.831881,1910-12-01,2017-03-04,2,1110719,895866,Tokachi gun Urahoro machi,Hokkaidou
1110720,1110720,厚内,Atsunai,,,11107,1,895865,十勝郡浦幌町字厚内,Tokachi gun Urahoro chou jiatsunai,143.814389,42.809539,0000-00-00,0000-00-00,0,1110720,895865,Tokachi gun Urahoro machi,Hokkaidou
1110721,1110721,直別,Jika betsu,,,11107,1,880135,釧路市音別町直別,Kushiro shi Onbetsu chou jika betsu,143.863607,42.852205,1907-10-25,2019-03-16,2,1110721,880135,Kushiro shi,Hokkaidou
1110722,1110722,尺別,Sashi betsu,,,11107,1,880132,釧路市音別町尺別（岐線）,Kushiro shi Onbetsu chou shaku betsu (Ki sen),143.904331,42.869163,1920-01-22,2019-03-16,2,1110722,880132,Kushiro shi,Hokkaidou
1110723,1110723,音別,Onbetsu,,,11107,1,880115,釧路市音別町本町１丁目,Kushiro shi Onbetsu chou Honchou 1 choume,143.932442,42.888997,0000-00-00,0000-00-00,0,1110723,880115,Kushiro shi,Hokkaidou
1110724,1110724,古瀬,Furuse,,,11107,1,880351,白糠郡白糠町和天別,Shiranuka gun Shiranuka chou waten betsu,144.008589,42.947893,1954-07-01,2020-03-14,2,1110724,880351,Shiranuka gun Shiranuka machi,Hokkaidou
1110724,1110724,古瀬,Furuse,,,11107,1,880351,白糠郡白糠町和天別,Shiranuka gun Shiranuka chou waten betsu,144.008589,42.947893,1954-07-01,2020-03-14,2,1110724,880351,Shiranuka gun Shiranuka machi,Hokkaidou
1110724,1110724,古瀬,Furuse,,,11107,1,880351,白糠郡白糠町和天別,Shiranuka gun Shiranuka chou waten betsu,144.008589,42.947893,1954-07-01,2020-03-14,2,1110724,880351,Shiranuka gun Shiranuka machi,Hokkaidou
1110724,1110724,古瀬,Furuse,,,11107,1,880351,白糠郡白糠町和天別,Shiranuka gun Shiranuka chou waten betsu,144.008589,42.947893,1954-07-01,2020-03-14,2,1110724,880351,Shiranuka gun Shiranuka machi,Hokkaidou
1110725,1110725,白糠,Shiranuka,,,11107,1,880301,白糠郡白糠町東１条南１丁目,Shiranuka gun Shiranuka machi higashi 1 jou minami 1 choume,144.076879,42.956161,0000-00-00,0000-00-00,0,1110725,880301,Shiranuka gun Shiranuka machi,Hokkaidou
1110726,1110726,西庶路,Nishi Shoji,,,11107,1,880572,白糠郡白糠町西庶路西１条南３丁目,Shiranuka gun Shiranuka chou Nishi Shoji nishi 1 jou minami 3 choume,144.129826,42.976138,0000-00-00,0000-00-00,0,1110726,880572,Shiranuka gun Shiranuka machi,Hokkaidou
1110726,1110726,西庶路,Nishi Shoji,,,11107,1,880572,白糠郡白糠町西庶路西１条南３丁目,Shiranuka gun Shiranuka chou Nishi Shoji nishi 1 jou minami 3 choume,144.129826,42.976138,0000-00-00,0000-00-00,0,1110726,880572,Shiranuka gun Shiranuka machi,Hokkaidou
1110726,1110726,西庶路,Nishi Shoji,,,11107,1,880572,白糠郡白糠町西庶路西１条南３丁目,Shiranuka gun Shiranuka chou Nishi Shoji nishi 1 jou minami 3 choume,144.129826,42.976138,0000-00-00,0000-00-00,0,1110726,880572,Shiranuka gun Shiranuka machi,Hokkaidou
1110726,1110726,西庶路,Nishi Shoji,,,11107,1,880572,白糠郡白糠町西庶路西１条南３丁目,Shiranuka gun Shiranuka chou Nishi Shoji nishi 1 jou minami 3 choume,144.129826,42.976138,0000-00-00,0000-00-00,0,1110726,880572,Shiranuka gun Shiranuka machi,Hokkaidou
1110726,1110726,西庶路,Nishi Shoji,,,11107,1,880572,白糠郡白糠町西庶路西１条南３丁目,Shiranuka gun Shiranuka chou Nishi Shoji nishi 1 jou minami 3 choume,144.129826,42.976138,0000-00-00,0000-00-00,0,1110726,880572,Shiranuka gun Shiranuka machi,Hokkaidou
1110727,1110727,庶路,Shoji,,,11107,1,880563,白糠郡白糠町庶路甲区,Shiranuka gun Shiranuka chou Shoji kou ku,144.150018,42.983601,0000-00-00,0000-00-00,0,1110727,880563,Shiranuka gun Shiranuka machi,Hokkaidou
1110728,1110728,大楽毛,Dairakumou,,,11107,1,840917,釧路市大楽毛５丁目,Kushiro shidai rakumou 5 choume,144.273879,43.009078,0000-00-00,0000-00-00,0,1110728,840917,Kushiro shi,Hokkaidou
1110729,1110729,新大楽毛,Shindaigakumou,,,11107,1,840917,釧路市大楽毛１丁目,Kushiro shidai rakumou 1 choume,144.295558,43.009423,0000-00-00,0000-00-00,0,1110729,840917,Kushiro shi,Hokkaidou
1110730,1110730,新富士,ShinFuji,,,11107,1,840904,釧路市新富士町３丁目,Kushiro shi shinFuji chou 3 choume,144.350758,43.001605,0000-00-00,0000-00-00,0,1110730,840904,Kushiro shi,Hokkaidou
1110731,1110731,釧路,Kushiro,,,11107,1,850015,釧路市北大通１４丁目,Kushiro shi Kita daitsuu 14 choume,144.381983,42.990584,0000-00-00,0000-00-00,0,1110731,850015,Kushiro shi,Hokkaidou
1110801,1110731,釧路,Kushiro,,,11108,1,850015,釧路市北大通１４丁目,Kushiro shi Kita daitsuu 14 choume,144.381983,42.990584,0000-00-00,0000-00-00,0,1110801,850015,Kushiro shi,Hokkaidou
1110802,1110802,東釧路,Higashi Kushiro,,,11108,1,850816,釧路市貝塚２丁目,Kushiro shi Kaizuka 2 choume,144.411307,42.995207,0000-00-00,0000-00-00,0,1110802,850816,Kushiro shi,Hokkaidou
1110803,1110803,武佐,Musa,,,11108,1,850806,釧路市武佐４丁目,Kushiro shi Musa 4 choume,144.426681,42.991364,0000-00-00,0000-00-00,0,1110803,850806,Kushiro shi,Hokkaidou
1110804,1110804,別保,Beppo,,,11108,1,880604,釧路郡釧路町字別保,Kushiro gun Kushiro chou ji Beppo,144.469596,42.994384,0000-00-00,0000-00-00,0,1110804,880604,Kushiro gun Kushiro machi,Hokkaidou
1110805,1110805,上尾幌,Ageo horo,,,11108,1,880771,厚岸郡厚岸町字上尾幌市街,Akkeshi gun Akkeshi chou ji Ageo horo shigai,144.61239,43.032893,0000-00-00,0000-00-00,0,1110805,880771,Akkeshi gun Akkeshi machi,Hokkaidou
1110806,1110806,尾幌,O horo,,,11108,1,880875,厚岸郡厚岸町大字苫多村字尾幌,Akkeshi gun Akkeshi machi ooaza toma Tamura ji o horo,144.703758,43.018463,0000-00-00,0000-00-00,0,1110806,880875,Akkeshi gun Akkeshi machi,Hokkaidou
1110807,1110807,門静,Kado Sei,,,11108,1,881126,厚岸郡厚岸町字門静,Akkeshi gun Akkeshi chou ji Kado Sei,144.782638,43.057581,0000-00-00,0000-00-00,0,1110807,881126,Akkeshi gun Akkeshi machi,Hokkaidou
1110808,1110808,厚岸,Akkeshi,,,11108,1,881124,厚岸郡厚岸町字宮園町,Akkeshi gun Akkeshi chou ji Miyazono machi,144.841355,43.056248,0000-00-00,0000-00-00,0,1110808,881124,Akkeshi gun Akkeshi machi,Hokkaidou
1110809,1110809,糸魚沢,Itoizawa,,,11108,1,881101,厚岸郡厚岸町大字別寒辺牛村ベカンベウシ,Akkeshi gun Akkeshi machi ooaza betsu kan hen Ushimura bekanbeushi,144.92545,43.103506,1919-11-25,2022-03-12,2,1110809,881101,Akkeshi gun Akkeshi machi,Hokkaidou
1110809,1110809,糸魚沢,Itoizawa,,,11108,1,881101,厚岸郡厚岸町大字別寒辺牛村ベカンベウシ,Akkeshi gun Akkeshi machi ooaza betsu kan hen Ushimura bekanbeushi,144.92545,43.103506,1919-11-25,2022-03-12,2,1110809,881101,Akkeshi gun Akkeshi machi,Hokkaidou
1110809,1110809,糸魚沢,Itoizawa,,,11108,1,881101,厚岸郡厚岸町大字別寒辺牛村ベカンベウシ,Akkeshi gun Akkeshi machi ooaza betsu kan hen Ushimura bekanbeushi,144.92545,43.103506,1919-11-25,2022-03-12,2,1110809,881101,Akkeshi gun Akkeshi machi,Hokkaidou
1110809,1110809,糸魚沢,Itoizawa,,,11108,1,881101,厚岸郡厚岸町大字別寒辺牛村ベカンベウシ,Akkeshi gun Akkeshi machi ooaza betsu kan hen Ushimura bekanbeushi,144.92545,43.103506,1919-11-25,2022-03-12,2,1110809,881101,Akkeshi gun Akkeshi machi,Hokkaidou
1110809,1110809,糸魚沢,Itoizawa,,,11108,1,881101,厚岸郡厚岸町大字別寒辺牛村ベカンベウシ,Akkeshi gun Akkeshi machi ooaza betsu kan hen Ushimura bekanbeushi,144.92545,43.103506,1919-11-25,2022-03-12,2,1110809,881101,Akkeshi gun Akkeshi machi,Hokkaidou
1110809,1110809,糸魚沢,Itoizawa,,,11108,1,881101,厚岸郡厚岸町大字別寒辺牛村ベカンベウシ,Akkeshi gun Akkeshi machi ooaza betsu kan hen Ushimura bekanbeushi,144.92545,43.103506,1919-11-25,2022-03-12,2,1110809,881101,Akkeshi gun Akkeshi machi,Hokkaidou
1110810,1110810,茶内,Chanai,,,11108,1,881500,厚岸郡浜中町大字琵琶瀬村字茶内市街,Akkeshi gun Hamanaka machi ooaza Biwase son ji Chanai shigai,145.02801,43.129266,0000-00-00,0000-00-00,0,1110810,881500,Akkeshi gun Hamanaka machi,Hokkaidou
1110811,1110811,浜中,Hamanaka,,,11108,1,881500,厚岸郡浜中町大字後静村字浜中市街,Akkeshi gun Hamanaka machi ooazago seison ji Hamanaka shigai,145.099657,43.15754,0000-00-00,0000-00-00,0,1110811,881500,Akkeshi gun Hamanaka machi,Hokkaidou
1110812,1110812,姉別,Anebetsu,,,11108,1,881500,厚岸郡浜中町大字後静村字姉別市街,Akkeshi gun Hamanaka machi ooazago seison ji Anebetsu shigai,145.194716,43.196201,0000-00-00,0000-00-00,0,1110812,881500,Akkeshi gun Hamanaka machi,Hokkaidou
1110813,1110813,厚床,Atsu yuka,,,11108,1,860064,根室市厚床１丁目,Nemuro shiatsu yuka 1 choume,145.252096,43.228224,0000-00-00,0000-00-00,0,1110813,860064,Nemuro shi,Hokkaidou
1110814,1110814,初田牛,Hatsu Touji,,,11108,1,860076,根室市初田牛,Nemuro shi hatsu Touji,145.32277,43.204542,1920-11-10,2019-03-16,2,1110814,860076,Nemuro shi,Hokkaidou
1110815,1110815,別当賀,Bettou ga,,,11108,1,860075,根室市別当賀,Nemuro shi bettou ga,145.423593,43.218427,0000-00-00,0000-00-00,0,1110815,860075,Nemuro shi,Hokkaidou
1110816,1110816,落石,Rakuseki,,,11108,1,881782,根室市落石東,Nemuro shi rakuseki higashi,145.519449,43.198335,0000-00-00,0000-00-00,0,1110816,881782,Nemuro shi,Hokkaidou
1110817,1110817,昆布盛,Konbu sei,,,11108,1,881784,根室市昆布盛,Nemuro shi konbu sei,145.542444,43.228593,0000-00-00,0000-00-00,0,1110817,881784,Nemuro shi,Hokkaidou
1110818,1110818,西和田,Seiwaden,,,11108,1,870033,根室市西和田,Nemuro shi Seiwaden,145.541817,43.268043,0000-00-00,0000-00-00,0,1110818,870033,Nemuro shi,Hokkaidou
1110819,1110819,花咲,Hanasaka,,,11108,1,870032,根室市花咲港,Nemuro shi Hanasakikou,145.575045,43.295388,1921-08-05,2016-03-26,2,1110819,870032,Nemuro shi,Hokkaidou
1110820,1110820,東根室,Higashineshitsu,,,11108,1,870004,根室市光洋町２丁目,Nemuro shikouyou chou 2 choume,145.597234,43.323655,0000-00-00,0000-00-00,0,1110820,870004,Nemuro shi,Hokkaidou
1110821,1110821,根室,Nemuro,,,11108,1,870027,根室市光和町２丁目,Nemuro shi Kouwa chou 2 choume,145.582707,43.326923,0000-00-00,0000-00-00,0,1110821,870027,Nemuro shi,Hokkaidou
1110901,1110434,苫小牧,Tomakomai,,,11109,1,530022,苫小牧市表町６丁目,Tomakomai shi Omotechou 6 choume,141.596837,42.639665,0000-00-00,0000-00-00,0,1110901,530022,Tomakomai shi,Hokkaidou
1110902,1110502,沼ノ端,Numa no hashi,,,11109,1,591364,苫小牧市字沼ノ端,Tomakomai shi ji numa no hashi,141.693132,42.672057,0000-00-00,0000-00-00,0,1110902,591364,Tomakomai shi,Hokkaidou
1110903,1110903,植苗,Shoku nae,,,11109,1,591365,苫小牧市字植苗,Tomakomai shi ji shoku nae,141.735344,42.713645,0000-00-00,0000-00-00,0,1110903,591365,Tomakomai shi,Hokkaidou
1110904,1110904,美々,Mimi,,,11109,1,660012,千歳市美々,Chitose shi Mimi,141.711387,42.777418,1926-08-21,2017-03-04,2,1110904,660012,Chitose shi,Hokkaidou
1110905,1110905,新千歳空港,ShinChitose kuukou,,,11109,1,660012,千歳市美々,Chitose shi Mimi,141.680823,42.787546,0000-00-00,0000-00-00,0,1110905,660012,Chitose shi,Hokkaidou
1110906,1110906,南千歳,Minami Chitose,,,11109,1,660044,千歳市字平和,Chitose shi ji heiwa,141.675388,42.80804,0000-00-00,0000-00-00,0,1110906,660044,Chitose shi,Hokkaidou
1110907,1110907,千歳,Chitose,,,11109,1,660062,千歳市千代田町７丁目,Chitose shi Chiyoda chou 7 choume,141.651934,42.82811,0000-00-00,0000-00-00,0,1110907,660062,Chitose shi,Hokkaidou
1110908,1110908,長都,Chouto,,,11109,1,660077,千歳市上長都,Chitose shi jouchou to,141.622987,42.852178,0000-00-00,0000-00-00,0,1110908,660077,Chitose shi,Hokkaidou
1110909,1110909,サッポロビール庭園,Sapporo beer teien,,,11109,1,611405,恵庭市戸磯,Eniwa shi to iso,141.605616,42.866812,0000-00-00,0000-00-00,0,1110909,611405,Eniwa shi,Hokkaidou
1110910,1110910,恵庭,Eniwa,,,11109,1,611448,恵庭市相生町,Eniwa shi Aioichou,141.586234,42.883076,0000-00-00,0000-00-00,0,1110910,611448,Eniwa shi,Hokkaidou
1110911,1110911,恵み野,Megumiya,,,11109,1,611373,恵庭市恵み野西１丁目,Eniwa shi megumiya nishi 1 choume,141.574429,42.902704,0000-00-00,0000-00-00,0,1110911,611373,Eniwa shi,Hokkaidou
1110912,1110912,島松,Shimamatsu,,,11109,1,611352,恵庭市島松仲町１丁目１-１,Eniwa Ichijima matsu Nakachou 1 choume 1 - 1,141.573117,42.922504,0000-00-00,0000-00-00,0,1110912,611352,Eniwa shi,Hokkaidou
1110913,1110913,北広島,Kitahiroshima,,,11109,1,611121,北広島市中央６丁目,Kitahiroshima shi chuuou 6 choume,141.563115,42.979239,0000-00-00,0000-00-00,0,1110913,611121,Kitahiroshima shi,Hokkaidou
1110914,1110914,上野幌,Kaminopporo,,,11109,1,40039,札幌市厚別区厚別町上野幌,Sapporo shi Atsubetsu ku Atsubetsu chou Kaminopporo,141.487317,43.016177,0000-00-00,0000-00-00,0,1110914,40039,Sapporo shi Atsubetsu ku,Hokkaidou
1110915,1110915,新札幌,ShinSapporo,,,11109,1,40052,札幌市厚別区厚別中央二条５丁目,Sapporo shi Atsubetsu ku Atsubetsu chuuou Nijou 5 choume,141.47237,43.038732,0000-00-00,0000-00-00,0,1110915,40052,Sapporo shi Atsubetsu ku,Hokkaidou
1110916,1110916,平和,Heiwa,,,11109,1,30029,札幌市白石区平和通１６丁目北,Sapporo shi Shiraishi ku heiwa tsuu 16 choume kita,141.437967,43.04695,0000-00-00,0000-00-00,0,1110916,30029,Sapporo shi Shiraishi ku,Hokkaidou
1110917,1110317,白石,Shiraishi,,,11109,1,30029,札幌市白石区平和通3丁目北6,Sapporo shi Shiraishi ku heiwa tsuu 3 choume kita 6,141.413612,43.054715,1903-04-21,0000-00-00,0,1110917,30029,Sapporo shi Shiraishi ku,Hokkaidou
1110918,1110316,苗穂,Naebo,,,11109,1,600033,札幌市中央区北３条東１３丁目,Sapporo shi Chuuou ku kita 3 jou higashi 13 choume,141.377522,43.068574,0000-00-00,0000-00-00,0,1110918,600033,Sapporo shi Chuuou ku,Hokkaidou
1110919,1110315,札幌,Sapporo,,,11109,1,600806,札幌市北区北６条西４丁目,Sapporo shi Kita ku kita 6 jou nishi 4 choume,141.350768,43.068612,0000-00-00,0000-00-00,0,1110919,600806,Sapporo shi Kita ku,Hokkaidou
1111001,1110906,南千歳,Minami Chitose,,,11110,1,660044,千歳市字平和,Chitose shi ji heiwa,141.675388,42.80804,0000-00-00,0000-00-00,0,1111001,660044,Chitose shi,Hokkaidou
1111002,1110506,追分,Oiwake,,,11110,1,591931,勇払郡安平町追分中央,Yuufutsu gun Abira machi oiwake chuuou,141.810678,42.873316,0000-00-00,0000-00-00,0,1111002,591931,Yuufutsu gun Abira machi,Hokkaidou
1111003,1111003,東追分,Higashi oiwake,,,11110,1,591984,勇払郡安平町追分向陽,Yuufutsu gun Abira machi oiwake Kouyou,141.83228,42.902377,1965-03-01,2016-03-26,2,1111003,591984,Yuufutsu gun Abira machi,Hokkaidou
1111004,1111004,川端,Kawabata,,,11110,1,691141,夕張郡由仁町字川端,Yuubari gun Yuni chou ji Kawabata,141.894791,42.914721,0000-00-00,0000-00-00,0,1111004,691141,Yuubari gun Yuni machi,Hokkaidou
1111005,1111005,滝ノ上,Takinoue,,,11110,1,680756,夕張市滝ノ上,Yuubari shi Takinoue,141.97628,42.910244,0000-00-00,2024-03-16,2,1111005,680756,Yuubari shi,Hokkaidou
1111006,1111006,十三里,Juu san ri,,,11110,1,680755,夕張市紅葉山,Yuubari shi kouyousan,142.024478,42.914667,1962-12-25,2016-03-26,2,1111006,680755,Yuubari shi,Hokkaidou
1111007,1111007,新夕張,ShinYuubari,,,11110,1,680755,夕張市紅葉山,Yuubari shi kouyousan,142.03657,42.936611,0000-00-00,0000-00-00,0,1111007,680755,Yuubari shi,Hokkaidou
1111008,1111008,沼ノ沢,Numa no sawa,,,11110,1,680751,夕張市沼ノ沢,Yuubari shi numa no sawa,142.030836,42.957586,0000-00-00,2019-04-01,2,1111008,680751,Yuubari shi,Hokkaidou
1111009,1111009,南清水沢,Nanshin suitaku,,,11110,1,680536,夕張市南清水沢２丁目,Yuubari shi Nanshin suitaku 2 choume,142.006597,42.985272,0000-00-00,2019-04-01,2,1111009,680536,Yuubari shi,Hokkaidou
1111010,1111010,清水沢,Shimizu taku,,,11110,1,680531,夕張市清水沢３丁目,Yuubari shi Shimizu sawa 3 choume,142.007285,42.99827,0000-00-00,2019-04-01,2,1111010,680531,Yuubari shi,Hokkaidou
1111011,1111011,鹿ノ谷,Shika no tani,,,11110,1,680413,夕張市鹿の谷３丁目,Yuubari shi shika no tani 3 choume,141.964476,43.039447,0000-00-00,2019-04-01,2,1111011,680413,Yuubari shi,Hokkaidou
1111012,1111012,夕張,Yuubari,,,11110,1,680411,夕張市末広１丁目,Yuubari shi suehiro 1 choume,141.967472,43.050926,0000-00-00,2019-04-01,2,1111012,680411,Yuubari shi,Hokkaidou
1111013,1111013,占冠,Shimukappu,,,11110,1,792202,勇払郡占冠村占冠,Yuufutsu gun Shimukappu son Shimukappu,142.400078,42.993088,0000-00-00,0000-00-00,0,1111013,792202,Yuufutsu gun Shimukappu mura,Hokkaidou
1111014,1111014,トマム,Tomamu,,,11110,1,792204,勇払郡占冠村字中トマム,Yuufutsu gun Shimukappu son jichuu Tomamu,142.610937,43.055913,0000-00-00,0000-00-00,0,1111014,792204,Yuufutsu gun Shimukappu mura,Hokkaidou
1111015,1110618,新得,Shintoku,,,11110,1,810005,上川郡新得町本通北１丁目,Kamikawa gun Shintoku chou hondoori kita 1 choume,142.832432,43.082501,0000-00-00,0000-00-00,0,1111015,810005,Kamikawa gun Shintoku machi,Hokkaidou
1111101,1110434,苫小牧,Tomakomai,,,11111,1,530022,苫小牧市表町６丁目,Tomakomai shi Omotechou 6 choume,141.596837,42.639665,0000-00-00,0000-00-00,0,1111101,530022,Tomakomai shi,Hokkaidou
1111102,1111102,勇払,Yuufutsu,,,11111,1,591372,苫小牧市字勇払,Tomakomai shi ji Yuufutsu,141.727667,42.632805,0000-00-00,0000-00-00,0,1111102,591372,Tomakomai shi,Hokkaidou
1111103,1111103,浜厚真,Hama Atsuma,,,11111,1,591742,勇払郡厚真町字浜厚真,Yuufutsu gun Atsuma chou ji hama Atsuma,141.837071,42.606725,0000-00-00,0000-00-00,0,1111103,591742,Yuufutsu gun Atsuma machi,Hokkaidou
1111104,1111104,浜田浦,Hama Taura,,,11111,1,540004,勇払郡むかわ町田浦,Yuufutsu gun Mukawa chou Taura,141.88362,42.590722,0000-00-00,2023-03-18,2,1111104,540004,Yuufutsu gun Mukawa machi,Hokkaidou
1111105,1111105,鵡川,Mukawa,,,11111,1,540023,勇払郡むかわ町末広２丁目,Yuufutsu gun Mukawa machi suehiro 2 choume,141.923892,42.578953,0000-00-00,0000-00-00,0,1111105,540023,Yuufutsu gun Mukawa machi,Hokkaidou
1111106,1111106,汐見,Shiomi,,,11111,1,540015,勇払郡むかわ町汐見,Yuufutsu gun Mukawa chou Shiomi,141.945255,42.550235,0000-00-00,2021-04-01,2,1111106,540015,Yuufutsu gun Mukawa machi,Hokkaidou
1111107,1111107,富川,Tomikawa,,,11111,1,550006,沙流郡日高町富川南４丁目,Saru gun Hidaka chou Tomikawa minami 4 choume,142.020855,42.516865,0000-00-00,2021-04-01,2,1111107,550006,Saru gun Hidaka machi,Hokkaidou
1111108,1111108,日高門別,Hidaka Monbetsu,,,11111,1,592121,沙流郡日高町門別本町,Saru gun Hidaka chou mon beppon chou,142.072692,42.481237,0000-00-00,2021-04-01,2,1111108,592121,Saru gun Hidaka machi,Hokkaidou
1111109,1111109,豊郷,Toyosato,,,11111,1,592126,沙流郡日高町豊郷,Saru gun Hidaka chou Toyosato,142.122493,42.470119,0000-00-00,2021-04-01,2,1111109,592126,Saru gun Hidaka machi,Hokkaidou
1111110,1111110,清畠,Kiyoshi hatake,,,11111,1,592245,沙流郡日高町清畠,Saru gun Hidaka chou Kiyoshi hatake,142.176624,42.455709,0000-00-00,2021-04-01,2,1111110,592245,Saru gun Hidaka machi,Hokkaidou
1111111,1111111,厚賀,Atsu ga,,,11111,1,592243,沙流郡日高町厚賀町,Saru gun Hidaka machiatsu ga chou,142.215896,42.430507,0000-00-00,2021-04-01,2,1111111,592243,Saru gun Hidaka machi,Hokkaidou
1111112,1111112,大狩部,Ookari bu,,,11111,1,592253,新冠郡新冠町字大狩部,Niikappu gun Niikappu chou ji ookari bu,142.259355,42.395695,0000-00-00,2021-04-01,2,1111112,592253,Niikappu gun Niikappu machi,Hokkaidou
1111113,1111113,節婦,Seppu,,,11111,1,592412,新冠郡新冠町字節婦町,Niikappu gun Niikappu chou ji seppu chou,142.275541,42.38248,0000-00-00,2021-04-01,2,1111113,592412,Niikappu gun Niikappu machi,Hokkaidou
1111114,1111114,新冠,Niikappu,,,11111,1,592400,新冠郡新冠町新冠字本町,Niikappu gun Niikappu chou Niikappu ji Honchou,142.312585,42.360667,0000-00-00,2021-04-01,2,1111114,592400,Niikappu gun Niikappu machi,Hokkaidou
1111115,1111115,静内,Shizunai,,,11111,1,560016,日高郡新ひだか町静内本町５丁目,Hidaka gun Shinhidaka chou Shizunai Honchou 5 choume,142.360402,42.336559,0000-00-00,2021-04-01,2,1111115,560016,Hidaka gun Shinhidaka machi,Hokkaidou
1111116,1111116,静内海水浴場,Shizunai kaisuiyokujou,,,11111,1,560011,北海道日高郡新ひだか町静内真歌,Hokkaidou Hidaka gun Shinhidaka chou Shizunai Makotoka,142.400665,42.314084,0000-00-00,0000-00-00,2,1111116,560011,Hidaka gun Shinhidaka machi,Hokkaidou
1111117,1111117,東静内,Higashi Shizunai,,,11111,1,592561,日高郡新ひだか町東静内,Hidaka gun Shinhidaka machi higashi Shizunai,142.450485,42.304416,0000-00-00,2021-04-01,2,1111117,592561,Hidaka gun Shinhidaka machi,Hokkaidou
1111118,1111118,春立,Shunritsu,,,11111,1,592565,日高郡新ひだか町静内春立,Hidaka gun Shinhidaka chou Shizunai shunritsu,142.498943,42.268515,0000-00-00,2021-04-01,2,1111118,592565,Hidaka gun Shinhidaka machi,Hokkaidou
1111119,1111119,日高東別,Hidaka higashi betsu,,,11111,1,592566,日高郡新ひだか町静内東別,Hidaka gun Shinhidaka chou Shizunai higashi betsu,142.521371,42.280837,0000-00-00,2021-04-01,2,1111119,592566,Hidaka gun Shinhidaka machi,Hokkaidou
1111120,1111120,日高三石,Hidaka san koku,,,11111,1,593107,日高郡新ひだか町三石旭町,Hidaka gun Shinhidaka chou Mitsuishi Asahichou,142.566859,42.247269,0000-00-00,2021-04-01,2,1111120,593107,Hidaka gun Shinhidaka machi,Hokkaidou
1111121,1111121,蓬栄,Yomogi Sakae,,,11111,1,593104,日高郡新ひだか町三石蓬栄,Hidaka gun Shinhidaka chou Mitsuishi yomogi Sakae,142.604517,42.264636,0000-00-00,2021-04-01,2,1111121,593104,Hidaka gun Shinhidaka machi,Hokkaidou
1111122,1111122,本桐,Honkiri,,,11111,1,593231,日高郡新ひだか町三石本桐,Hidaka gun Shinhidaka chou Mitsuishi Honkiri,142.630455,42.248205,0000-00-00,2021-04-01,2,1111122,593231,Hidaka gun Shinhidaka machi,Hokkaidou
1111123,1111123,荻伏,Ogi fuku,,,11111,1,593451,浦河郡浦河町荻伏町,Urakawa gun Urakawa chou Ogibuse chou,142.689432,42.206136,0000-00-00,2021-04-01,2,1111123,593451,Urakawa gun Urakawa machi,Hokkaidou
1111124,1111124,絵笛,E fue,,,11111,1,570036,浦河郡浦河町絵笛,Urakawa gun Urakawa chou e fue,142.736134,42.198428,0000-00-00,2021-04-01,2,1111124,570036,Urakawa gun Urakawa machi,Hokkaidou
1111125,1111125,浦河,Urakawa,,,11111,1,570022,浦河郡浦河町昌平町,Urakawa gun Urakawa chou Shouhei machi,142.769976,42.168366,0000-00-00,2021-04-01,2,1111125,570022,Urakawa gun Urakawa machi,Hokkaidou
1111126,1111126,東町,Higashi machi,,,11111,1,570005,浦河郡浦河町東町うしお１丁目,Urakawa gun Urakawa chou Higashimachi ushio 1 choume,142.788931,42.156037,0000-00-00,2021-04-01,2,1111126,570005,Urakawa gun Urakawa machi,Hokkaidou
1111127,1111127,日高幌別,Hidaka Horobetsu,,,11111,1,570002,浦河郡浦河町字西幌別,Urakawa gun Urakawa chou ji nishi Horobetsu,142.834519,42.142338,0000-00-00,2021-04-01,2,1111127,570002,Urakawa gun Urakawa machi,Hokkaidou
1111128,1111128,鵜苫,U toma,,,11111,1,580033,様似郡様似町鵜苫,Samani gun Samani machi u toma,142.882513,42.134449,0000-00-00,2021-04-01,2,1111128,580033,Samani gun Samani machi,Hokkaidou
1111129,1111129,西様似,Nishi Samani,,,11111,1,580032,様似郡様似町西町,Samani gun Samani chou Nishimachi,142.908737,42.138411,0000-00-00,2021-04-01,2,1111129,580032,Samani gun Samani machi,Hokkaidou
1111130,1111130,様似,Samani,,,11111,1,580014,様似郡様似町大通１丁目,Samani gun Samani chou daitsuu 1 choume,142.93596,42.127936,0000-00-00,2021-04-01,2,1111130,580014,Samani gun Samani machi,Hokkaidou
1111201,1110315,札幌,Sapporo,,,11112,1,600806,札幌市北区北６条西４丁目,Sapporo shi Kita ku kita 6 jou nishi 4 choume,141.350768,43.068612,0000-00-00,0000-00-00,0,1111201,600806,Sapporo shi Kita ku,Hokkaidou
1111202,1110314,桑園,Souen,,,11112,1,600011,札幌市中央区北１１条西１５丁目,Sapporo shi Chuuou ku kita 11 jou nishi 15 choume,141.332036,43.070744,0000-00-00,0000-00-00,0,1111202,600011,Sapporo shi Chuuou ku,Hokkaidou
1111203,1111203,八軒,Hachiken,,,11112,1,630866,札幌市西区八軒６条東２丁目,Sapporo shi Nishi ku Hachiken 6 jou higashi 2 choume,141.319145,43.085845,0000-00-00,0000-00-00,0,1111203,630866,Sapporo shi Nishi ku,Hokkaidou
1111204,1111204,新川,Shinkawa,,,11112,1,10924,札幌市北区新川四条１丁目,Sapporo shi Kita ku Shinkawa Shijou 1 choume,141.323824,43.098604,0000-00-00,0000-00-00,0,1111204,10924,Sapporo shi Kita ku,Hokkaidou
1111205,1111205,新琴似,Shinkotoni,,,11112,1,10908,札幌市北区新琴似８条１丁目,Sapporo shi Kita ku Shinkotoni 8 jou 1 choume,141.335105,43.112928,0000-00-00,0000-00-00,0,1111205,10908,Sapporo shi Kita ku,Hokkaidou
1111206,1111206,太平,Taihei,,,11112,1,28002,札幌市北区太平２条５丁目,Sapporo shi Kita ku Taihei 2 jou 5 choume,141.349526,43.12401,0000-00-00,0000-00-00,0,1111206,28002,Sapporo shi Kita ku,Hokkaidou
1111207,1111207,百合が原,Yurigahara,,,11112,1,28051,札幌市北区篠路町太平中央,Sapporo shi Kita ku Shinoro chou Taihei chuuou,141.360672,43.131476,0000-00-00,0000-00-00,0,1111207,28051,Sapporo shi Kita ku,Hokkaidou
1111208,1111208,篠路,Shinoro,,,11112,1,28024,札幌市北区篠路４条７丁目,Sapporo shi Kita ku Shinoro 4 jou 7 choume,141.364323,43.145152,0000-00-00,0000-00-00,0,1111208,28024,Sapporo shi Kita ku,Hokkaidou
1111209,1111209,拓北,Taku kita,,,11112,1,28066,札幌市北区拓北６条３丁目,Sapporo shi Kita ku taku kita 6 jou 3 choume,141.381013,43.155568,0000-00-00,0000-00-00,0,1111209,28066,Sapporo shi Kita ku,Hokkaidou
1111210,1111210,あいの里教育大,Ainosato kyouikudai,,,11112,1,28071,札幌市北区あいの里１条５丁目,Sapporo shi Kita ku Ainosato 1 jou 5 choume,141.39842,43.15528,0000-00-00,0000-00-00,0,1111210,28071,Sapporo shi Kita ku,Hokkaidou
1111211,1111211,あいの里公園,Ainosato kouen,,,11112,1,28072,札幌市北区あいの里２条８丁目,Sapporo shi Kita ku Ainosato 2 jou 8 choume,141.413276,43.161206,0000-00-00,0000-00-00,0,1111211,28072,Sapporo shi Kita ku,Hokkaidou
1111231,1111231,ロイズタウン,Lloyd'S town,,,11112,1,613773,北海道石狩郡当別町当別太1225番地9,Hokkaidou Ishikari gun Toubetsu chou Toubetsu Futoshi 1225 banchi 9,141.436236,43.179589,2022-03-12,0000-00-00,0,1111211,613773,Ishikari gun Toubetsu machi,Hokkaidou
1111212,1111212,太美,Futoshi bi,,,11112,1,613776,石狩郡当別町太美町,Ishikari gun Toubetsu machi futo bi chou,141.449066,43.189801,0000-00-00,0000-00-00,0,1111212,613776,Ishikari gun Toubetsu machi,Hokkaidou
1111213,1111213,当別,Toubetsu,,,11112,1,610226,石狩郡当別町字錦町,Ishikari gun Toubetsu chou ji Nishikichou,141.513764,43.22208,0000-00-00,0000-00-00,0,1111213,610226,Ishikari gun Toubetsu machi,Hokkaidou
1111214,1111214,北海道医療大学,Hokkaidou iryou daigaku,,,11112,1,610212,石狩郡当別町字金沢,Ishikari gun Toubetsu chou ji Kanazawa,141.54995,43.230925,0000-00-00,0000-00-00,0,1111214,610212,Ishikari gun Toubetsu machi,Hokkaidou
1111215,1111215,石狩金沢,Ishikari Kanazawa,,,11112,1,610212,石狩郡当別町字金沢,Ishikari gun Toubetsu chou ji Kanazawa,141.569239,43.245385,0000-00-00,2020-04-01,2,1111215,610212,Ishikari gun Toubetsu machi,Hokkaidou
1111216,1111216,本中小屋,Honchuukoya,,,11112,1,610211,石狩郡当別町字中小屋,Ishikari gun Toubetsu chou jichuu koya,141.591661,43.28019,0000-00-00,2020-04-01,2,1111216,610211,Ishikari gun Toubetsu machi,Hokkaidou
1111217,1111217,中小屋,Naka koya,,,11112,1,610211,石狩郡当別町字中小屋,Ishikari gun Toubetsu chou jichuu koya,141.602341,43.306846,0000-00-00,2020-04-01,2,1111217,610211,Ishikari gun Toubetsu machi,Hokkaidou
1111218,1111218,月ケ岡,Getsu ke Oka,,,11112,1,610500,北海道樺戸郡月形町字月ヶ岡,Hokkaidou Kabato gun Tsukigata chou ji gatsu ga oka,141.61807,43.324867,0000-00-00,2020-04-01,2,1111218,610500,Kabato gun Tsukigata machi,Hokkaidou
1111219,1111219,知来乙,Chi raiotsu,,,11112,1,610516,樺戸郡月形町字知来乙,Kabato gun Tsukigata chou ji chi raiotsu,141.649123,43.331545,0000-00-00,2020-04-01,2,1111219,610516,Kabato gun Tsukigata machi,Hokkaidou
1111220,1111220,石狩月形,Ishikari tsukigata,,,11112,1,610518,樺戸郡月形町赤川,Kabato gun Tsukigata chou Akagawa,141.670193,43.340869,0000-00-00,2020-04-01,2,1111220,610518,Kabato gun Tsukigata machi,Hokkaidou
1111221,1111221,豊ケ岡,Yutaka ke Oka,,,11112,1,610500,北海道樺戸郡月形町字豊ケ丘,Hokkaidou Kabato gun Tsukigata chou ji Yutaka kekyuu,141.714026,43.366645,0000-00-00,2020-04-01,2,1111221,610500,Kabato gun Tsukigata machi,Hokkaidou
1111222,1111222,札比内,Satsu hinai,,,11112,1,610505,樺戸郡月形町字札比内,Kabato gun Tsukigata chou ji satsu hinai,141.742762,43.370926,0000-00-00,2020-04-01,2,1111222,610505,Kabato gun Tsukigata machi,Hokkaidou
1111223,1111223,晩生内,Banseinai,,,11112,1,610622,樺戸郡浦臼町字晩生内第２,Kabato gun Urausu chou ji banseinai dai2,141.779211,43.399921,0000-00-00,2020-04-01,2,1111223,610622,Kabato gun Urausu machi,Hokkaidou
1111224,1111224,札的,Satsuteki,,,11112,1,610600,樺戸郡浦臼町字浦臼内,Kabato gun Urausu chou ji Urausunai,141.803549,43.419153,0000-00-00,2020-04-01,2,1111224,610600,Kabato gun Urausu machi,Hokkaidou
1111225,1111225,浦臼,Urausu,,,11112,1,610600,樺戸郡浦臼町字浦臼内,Kabato gun Urausu chou ji Urausunai,141.817376,43.430964,0000-00-00,2020-04-01,2,1111225,610600,Kabato gun Urausu machi,Hokkaidou
1111226,1111226,鶴沼,Tsuru numa,,,11112,1,610600,樺戸郡浦臼町字於礼内,Kabato gun Urausu chou ji o reinai,141.840637,43.457673,0000-00-00,2020-04-01,2,1111226,610600,Kabato gun Urausu machi,Hokkaidou
1111227,1111227,於札内,O satsunai,,,11112,1,610600,樺戸郡浦臼町字オサツナイ,Kabato gun Urausu chou ji osatsunai,141.840102,43.473424,0000-00-00,2020-04-01,2,1111227,610600,Kabato gun Urausu machi,Hokkaidou
1111228,1111228,南下徳富,Nanka Tokutomi,,,11112,1,731105,樺戸郡新十津川町字花月,Kabato gun Shintotsukawa chou ji kagetsu,141.844454,43.485542,0000-00-00,2020-04-01,2,1111228,731105,Kabato gun Shintotsukawa machi,Hokkaidou
1111229,1111229,下徳富,Shita Tokutomi,,,11112,1,731105,樺戸郡新十津川町字花月,Kabato gun Shintotsukawa chou ji kagetsu,141.855574,43.50271,0000-00-00,2020-04-01,2,1111229,731105,Kabato gun Shintotsukawa machi,Hokkaidou
1111230,1111230,新十津川,Shintotsukawa,,,11112,1,731103,樺戸郡新十津川町字中央,Kabato gun Shintotsukawa chou ji chuuou,141.874172,43.545575,0000-00-00,2020-04-01,2,1111230,731103,Kabato gun Shintotsukawa machi,Hokkaidou
1111301,1110338,深川,Fukagawa,,,11113,1,740001,深川市１条,Fukagawa shi 1 jou,142.041642,43.721021,0000-00-00,0000-00-00,0,1111301,740001,Fukagawa shi,Hokkaidou
1111302,1111302,北一已,Kita ichi ?,,,11113,1,740028,深川市一已町一已,Fukagawa shi ichi ?? ichi ?,142.014721,43.742021,0000-00-00,0000-00-00,0,1111302,740028,Fukagawa shi,Hokkaidou
1111303,1111303,秩父別,Chippubetsu,,,11113,1,782100,雨竜郡秩父別町２６区,Uryuu gun Chippubetsu chou 26 ku,141.967757,43.769099,0000-00-00,0000-00-00,0,1111303,782100,Uryuu gun Chippubetsu machi,Hokkaidou
1111304,1111304,北秩父別,Kita Chippubetsu,,,11113,1,782106,雨竜郡秩父別町６条１丁目,Uryuu gun Chippubetsu chou 6 jou 1 choume,141.960915,43.789375,0000-00-00,0000-00-00,0,1111304,782106,Uryuu gun Chippubetsu machi,Hokkaidou
1111305,1111305,石狩沼田,Ishikari Numata,,,11113,1,782222,雨竜郡沼田町沼田,Uryuu gun Numata chou Numata,141.934266,43.810032,0000-00-00,0000-00-00,0,1111305,782222,Uryuu gun Numata machi,Hokkaidou
1111306,1111306,真布,Manuno,,,11113,1,782221,雨竜郡沼田町字真布,Uryuu gun Numata chou ji manuno,141.906756,43.832965,0000-00-00,2023-04-01,2,1111306,782221,Uryuu gun Numata machi,Hokkaidou
1111307,1111307,恵比島,Megumi hitou,,,11113,1,782224,雨竜郡沼田町字恵比島,Uryuu gun Numata chou ji Megumi hitou,141.88144,43.851296,0000-00-00,2023-04-01,2,1111307,782224,Uryuu gun Numata machi,Hokkaidou
1111308,1111308,峠下,Tougeshita,,,11113,1,783161,留萌市留萌村峠下,Rumoi shi Rumoi son Tougeshita,141.818879,43.850789,0000-00-00,2023-04-01,2,1111308,783161,Rumoi shi,Hokkaidou
1111309,1111309,幌糠,Horo nuka,,,11113,1,783168,留萌市幌糠町幌糠,Rumoi shi horo nuka machi horo nuka,141.758418,43.855521,0000-00-00,2023-04-01,2,1111309,783168,Rumoi shi,Hokkaidou
1111310,1111310,藤山,Fujiyama,,,11113,1,783165,留萌市藤山町藤山,Rumoi shi Fujiyama chou Fujiyama,141.720588,43.88708,0000-00-00,2023-04-01,2,1111310,783165,Rumoi shi,Hokkaidou
1111310,1111310,藤山,Fujiyama,,,11113,1,783165,留萌市藤山町藤山,Rumoi shi Fujiyama chou Fujiyama,141.720588,43.88708,0000-00-00,2023-04-01,2,1111310,783165,Rumoi shi,Hokkaidou
1111311,1111311,大和田,Oowada,,,11113,1,770012,留萌市大和田,Rumoi shi Oowada,141.696528,43.913418,0000-00-00,2023-04-01,2,1111311,770012,Rumoi shi,Hokkaidou
1111312,1111312,留萌,Rumoi,,,11113,1,770005,留萌市船場町２丁目,Rumoi shi funaba machi 2 choume,141.651433,43.942848,0000-00-00,2023-04-01,2,1111312,770005,Rumoi shi,Hokkaidou
1111313,1111313,瀬越,Segoe,,,11113,1,770047,留萌市瀬越町,Rumoi shi Segoe machi,141.634535,43.934987,1926-07-01,2016-12-05,2,1111313,770047,Rumoi shi,Hokkaidou
1111314,1111314,浜中海水浴場,Hamanaka kaisuiyokujou,,,11113,1,770036,北海道留萌市浜中町,Hokkaidou Rumoi shi Hamanaka machi,141.632835,43.930354,1989-07-23,1995-08-08,2,1111314,770036,Rumoi shi,Hokkaidou
1111315,1111315,礼受,Rei ju,,,11113,1,770035,留萌市礼受町,Rumoi shi rei ju chou,141.611358,43.904871,1921-11-05,2016-12-05,2,1111315,770035,Rumoi shi,Hokkaidou
1111316,1111316,阿分,A fun,,,11113,1,770200,増毛郡増毛町大字阿分村,Mashike gun Mashike machi ooaza a bunson,141.605598,43.894339,1963-12-01,2016-12-05,2,1111316,770200,Mashike gun Mashike machi,Hokkaidou
1111317,1111317,信砂,Shinsa,,,11113,1,770200,増毛郡増毛町大字舎熊村字信砂,Mashike gun Mashike machi ooazasha kuma mura ji shinsa,141.589039,43.874479,1963-12-01,2016-12-05,2,1111317,770200,Mashike gun Mashike machi,Hokkaidou
1111318,1111318,舎熊,Sha kuma,,,11113,1,770200,増毛郡増毛町大字舎熊村字舎熊,Mashike gun Mashike machi ooazasha kuma mura jisha kuma,141.580068,43.869113,1921-11-05,2016-12-05,2,1111318,770200,Mashike gun Mashike machi,Hokkaidou
1111319,1111319,朱文別,Shubun betsu,,,11113,1,770200,増毛郡増毛町大字朱文別,Mashike gun Mashike machi ooaza shubun betsu,141.564328,43.860678,1963-12-01,2016-12-05,2,1111319,770200,Mashike gun Mashike machi,Hokkaidou
1111320,1111320,箸別,Hashi betsu,,,11113,1,770200,増毛郡増毛町増毛村大字箸別,Mashike gun Mashike chou Mashike mura ooaza hashi betsu,141.55164,43.859125,1963-12-01,2016-12-05,2,1111320,770200,Mashike gun Mashike machi,Hokkaidou
1111321,1111321,増毛,Mashike,,,11113,1,770205,増毛郡増毛町弁天町１丁目,Mashike gun Mashike chou Benten chou 1 choume,141.527559,43.856522,1921-11-05,2016-12-05,2,1111321,770205,Mashike gun Mashike machi,Hokkaidou
1111401,1110342,旭川,Asahikawa,,,11114,1,700030,旭川市宮下通８丁目,Asahikawa shi Miyashitadoori 8 choume,142.357803,43.763492,0000-00-00,0000-00-00,0,1111401,700030,Asahikawa shi,Hokkaidou
1111402,1111402,神楽岡,Kaguraoka,,,11114,1,788314,旭川市神楽岡４条１４丁目,Asahikawa shi Kaguraoka 4 jou 14 choume,142.358257,43.745033,0000-00-00,0000-00-00,0,1111402,788314,Asahikawa shi,Hokkaidou
1111403,1111403,緑が丘,Midorigaoka,,,11114,1,788323,旭川市神楽岡１３条９丁目,Asahikawa shi Kaguraoka 13 jou 9 choume,142.365701,43.731074,0000-00-00,0000-00-00,0,1111403,788323,Asahikawa shi,Hokkaidou
1111404,1111404,西御料,Nishi goryou,,,11114,1,788381,旭川市西神楽一線５号,Asahikawa shi Seishingaku issen 5 gou,142.371507,43.720834,0000-00-00,0000-00-00,0,1111404,788381,Asahikawa shi,Hokkaidou
1111405,1111405,西瑞穂,Nishi Mizuho,,,11114,1,788381,旭川市西神楽一線９号,Asahikawa shi Seishingaku issen 9 gou,142.381982,43.70242,0000-00-00,0000-00-00,0,1111405,788381,Asahikawa shi,Hokkaidou
1111406,1111406,西神楽,Seishingaku,,,11114,1,710171,旭川市西神楽南１条１丁目,Asahikawa shi Seishingaku minami 1 jou 1 choume,142.393677,43.682181,0000-00-00,0000-00-00,0,1111406,710171,Asahikawa shi,Hokkaidou
1111407,1111407,西聖和,Nishi Seiwa,,,11114,1,788382,旭川市西神楽二線１７号,Asahikawa shi Seishingaku nisen 17 gou,142.415209,43.669047,0000-00-00,0000-00-00,0,1111407,788382,Asahikawa shi,Hokkaidou
1111408,1111408,千代ケ岡,Chiyo ke Oka,,,11114,1,788381,北海道旭川市西神楽1線24号,Hokkaidou Asahikawa shi Seishingaku 1 sen 24 gou,142.451024,43.643737,0000-00-00,0000-00-00,0,1111408,788381,Asahikawa shi,Hokkaidou
1111409,1111409,北美瑛,Kita Biei,,,11114,1,710226,上川郡美瑛町字下宇莫別,Kamikawa gun Biei chou jika Sakai Baku betsu,142.479594,43.617884,0000-00-00,0000-00-00,0,1111409,710226,Kamikawa gun Biei machi,Hokkaidou
1111410,1111410,美瑛,Biei,,,11114,1,710208,上川郡美瑛町本町１丁目,Kamikawa gun Biei chou Honchou 1 choume,142.461639,43.591186,0000-00-00,0000-00-00,0,1111410,710208,Kamikawa gun Biei machi,Hokkaidou
1111411,1111411,美馬牛,Mima ushi,,,11114,1,710471,上川郡美瑛町字美馬牛,Kamikawa gun Biei chou ji Mima ushi,142.447192,43.537408,0000-00-00,0000-00-00,0,1111411,710471,Kamikawa gun Biei machi,Hokkaidou
1111412,1111412,上富良野,Kamifurano,,,11114,1,710543,空知郡上富良野町中町１丁目,Sorachi gun Kamifurano chou Nakachou 1 choume,142.468761,43.464046,0000-00-00,0000-00-00,0,1111412,710543,Sorachi gun Kamifurano machi,Hokkaidou
1111413,1111413,西中,Nishinaka,,,11114,1,710704,空知郡中富良野町基線北１８号,Sorachi gun Nakafurano chou kisen kita 18 gou,142.441876,43.429569,0000-00-00,0000-00-00,0,1111413,710704,Sorachi gun Nakafurano machi,Hokkaidou
1111414,1111414,ラベンダー畑,Lavender hatake,,,11114,1,710704,空知郡中富良野町基線北１５号,Sorachi gun Nakafurano chou kisen kita 15 gou,142.434032,43.42065,0000-00-00,0000-00-00,0,1111414,710704,Sorachi gun Nakafurano machi,Hokkaidou
1111415,1111415,中富良野,Nakafurano,,,11114,1,710700,空知郡中富良野町市街地,Sorachi gun Nakafurano chou shigai chi,142.420812,43.405704,0000-00-00,0000-00-00,0,1111415,710700,Sorachi gun Nakafurano machi,Hokkaidou
1111416,1111416,鹿討,Shika uchi,,,11114,1,710700,空知郡中富良野町字富良野基線北８号,Sorachi gun Nakafurano chou ji Furano kisen kita 8 gou,142.404812,43.387499,0000-00-00,0000-00-00,0,1111416,710700,Sorachi gun Nakafurano machi,Hokkaidou
1111417,1111417,学田,Gakuta,,,11114,1,760047,富良野市字西学田二区,Furano shi ji seigakuden ni ku,142.386118,43.366234,0000-00-00,0000-00-00,0,1111417,760047,Furano shi,Hokkaidou
1111418,1110610,富良野,Furano,,,11114,1,760025,富良野市日の出町,Furano shi Hinode machi,142.391374,43.347114,0000-00-00,0000-00-00,0,1111418,760025,Furano shi,Hokkaidou
1111501,1110342,旭川,Asahikawa,,,11115,1,700030,旭川市宮下通８丁目,Asahikawa shi Miyashitadoori 8 choume,142.357803,43.763492,0000-00-00,0000-00-00,0,1111501,700030,Asahikawa shi,Hokkaidou
1111502,1111502,旭川四条,Asahikawa Shijou,,,11115,1,788214,旭川市四条通１８丁目,Asahikawa shi Shijou toori 18 choume,142.375815,43.764056,0000-00-00,0000-00-00,0,1111502,788214,Asahikawa shi,Hokkaidou
1111503,1111503,新旭川,Shin'Asahi kawa,,,11115,1,700028,旭川市東八条６丁目,Asahikawa shi higashi Hachijou 6 choume,142.384789,43.780174,0000-00-00,0000-00-00,0,1111503,700028,Asahikawa shi,Hokkaidou
1111504,1111504,永山,Nagayama,,,11115,1,798411,旭川市永山１条１９丁目,Asahikawa shi Nagayama 1 jou 19 choume,142.434382,43.814158,0000-00-00,0000-00-00,0,1111504,798411,Asahikawa shi,Hokkaidou
1111505,1111505,北永山,Kita Nagayama,,,11115,1,798431,旭川市永山町１５丁目,Asahikawa shi Nagayama chou 15 choume,142.454493,43.826736,0000-00-00,0000-00-00,0,1111505,798431,Asahikawa shi,Hokkaidou
1111506,1111506,南比布,Minami Pippu,,,11115,1,780311,上川郡比布町南１線５号,Kamikawa gun Pippu machi minami 1 sen 5 gou,142.467271,43.853342,1955-12-02,2021-03-13,2,1111506,780311,Kamikawa gun Pippu machi,Hokkaidou
1111507,1111507,比布,Pippu,,,11115,1,780341,上川郡比布町市街地,Kamikawa gun Pippu chou shigai chi,142.471294,43.874478,0000-00-00,0000-00-00,0,1111507,780341,Kamikawa gun Pippu machi,Hokkaidou
1111508,1111508,北比布,Kita Pippu,,,11115,1,780325,上川郡比布町北５線１０号,Kamikawa gun Pippu machi kita 5 sen 10 gou,142.476545,43.901728,1955-12-02,2021-03-13,2,1111508,780325,Kamikawa gun Pippu machi,Hokkaidou
1111509,1111509,蘭留,Olandaryuu,,,11115,1,780329,上川郡比布町北９線１４号,Kamikawa gun Pippu machi kita 9 sen 14 gou,142.473699,43.925072,0000-00-00,0000-00-00,0,1111509,780329,Kamikawa gun Pippu machi,Hokkaidou
1111510,1111510,塩狩,Shiokari,,,11115,1,980125,上川郡和寒町塩狩,Kamikawa gun Wassamu chou Shiokari,142.4552,43.96794,0000-00-00,0000-00-00,0,1111510,980125,Kamikawa gun Wassamu machi,Hokkaidou
1111511,1111511,和寒,Wassamu,,,11115,1,980133,上川郡和寒町北町,Kamikawa gun Wassamu chou Kitamachi,142.415309,44.026932,0000-00-00,0000-00-00,0,1111511,980133,Kamikawa gun Wassamu machi,Hokkaidou
1111512,1111512,東六線,Higashi rokusen,,,11115,1,980300,上川郡剣淵町第１０区,Kamikawa gun Kenbuchi chou dai10 ku,142.388073,44.068723,0000-00-00,2021-03-13,2,1111512,980300,Kamikawa gun Kenbuchi machi,Hokkaidou
1111513,1111513,剣淵,Kenbuchi,,,11115,1,980300,上川郡剣淵町栄町,Kamikawa gun Kenbuchi chou Sakaechou,142.364754,44.09643,0000-00-00,0000-00-00,0,1111513,980300,Kamikawa gun Kenbuchi machi,Hokkaidou
1111514,1111514,北剣淵,Kita Kenbuchi,,,11115,1,980300,上川郡剣淵町第１３区,Kamikawa gun Kenbuchi chou dai13 ku,142.377955,44.139423,1959-11-01,2021-03-13,2,1111514,980300,Kamikawa gun Kenbuchi machi,Hokkaidou
1111515,1111515,士別,Shibetsu,,,11115,1,950023,士別市西３条８丁目,Shibetsu shi nishi 3 jou 8 choume,142.388247,44.172536,0000-00-00,0000-00-00,0,1111515,950023,Shibetsu shi,Hokkaidou
1111516,1111516,下士別,Kashi betsu,,,11115,1,950061,士別市下士別町,Shibetsu shi kashi betsu machi,142.396405,44.210583,1955-12-02,2021-03-13,2,1111516,950061,Shibetsu shi,Hokkaidou
1111517,1111517,多寄,Ta?,,,11115,1,980475,士別市多寄町３６線東,Shibetsu shi ta?? 36 sen higashi,142.396315,44.241296,0000-00-00,0000-00-00,0,1111517,980475,Shibetsu shi,Hokkaidou
1111518,1111518,瑞穂,Mizuho,,,11115,1,980475,士別市多寄町３１線東,Shibetsu shi ta?? 31 sen higashi,142.396244,44.266349,0000-00-00,0000-00-00,0,1111518,980475,Shibetsu shi,Hokkaidou
1111519,1111519,風連,Fuuren,,,11115,1,980504,名寄市風連町本町,Nayoro shi Fuuren chou Honchou,142.421624,44.292238,0000-00-00,0000-00-00,0,1111519,980504,Nayoro shi,Hokkaidou
1111520,1111520,名寄高校,Nayoro koukou,,,11115,1,980512,名寄市風連町東風連,Nayoro shi Fuuren chou toufuu ren,142.46548195769,44.330938813348,0000-00-00,0000-00-00,0,1111520,980512,Nayoro shi,Hokkaidou
1111521,1111521,名寄,Nayoro,,,11115,1,960001,名寄市東１条南６丁目,Nayoro shi higashi 1 jou minami 6 choume,142.465207,44.349403,0000-00-00,0000-00-00,0,1111521,960001,Nayoro shi,Hokkaidou
1111522,1111522,日進,Nisshin,,,11115,1,960066,名寄市字日進,Nayoro shi ji nisshin,142.467354,44.381713,0000-00-00,0000-00-00,0,1111522,960066,Nayoro shi,Hokkaidou
1111523,1111523,北星,Hokusei,,,11115,1,982181,名寄市智恵文北星,Nayoro shi Chiebun hokusei,142.428116,44.441569,1959-11-01,2021-03-13,2,1111523,982181,Nayoro shi,Hokkaidou
1111524,1111524,智恵文,Chiebun,,,11115,1,982181,名寄市智恵文１１線,Nayoro shi Chiebun 11 sen,142.414772,44.455553,0000-00-00,0000-00-00,0,1111524,982181,Nayoro shi,Hokkaidou
1111525,1111525,智北,Satoshi kita,,,11115,1,982181,名寄市字智恵文,Nayoro shi ji Chiebun,142.394007,44.46103,0000-00-00,0000-00-00,0,1111525,982181,Nayoro shi,Hokkaidou
1111526,1111526,南美深,Minami Bifuka,,,11115,1,982205,中川郡美深町字美深,Nakagawa gun Bifuka chou ji Bifuka,142.367822,44.462604,1956-07-01,2021-03-13,2,1111526,982205,Nakagawa gun Bifuka machi,Hokkaidou
1111527,1111527,美深,Bifuka,,,11115,1,982238,中川郡美深町字開運町,Nakagawa gun Bifuka chou ji kaiun chou,142.350597,44.482951,0000-00-00,0000-00-00,0,1111527,982238,Nakagawa gun Bifuka machi,Hokkaidou
1111528,1111528,初野,Hatsuno,,,11115,1,982211,中川郡美深町字富岡,Nakagawa gun Bifuka chou ji Tomioka,142.336129,44.512808,0000-00-00,2024-03-16,2,1111528,982211,Nakagawa gun Bifuka machi,Hokkaidou
1111529,1111529,紋穂内,Mon honai,,,11115,1,982366,中川郡美深町字紋穂内,Nakagawa gun Bifuka chou ji mon honai,142.33357,44.538761,1911-11-03,2021-03-13,2,1111529,982366,Nakagawa gun Bifuka machi,Hokkaidou
1111530,1111530,恩根内,On Neuchi,,,11115,1,982361,中川郡美深町字恩根内,Nakagawa gun Bifuka chou ji on Neuchi,142.309447,44.598486,0000-00-00,2024-03-16,2,1111530,982361,Nakagawa gun Bifuka machi,Hokkaidou
1111531,1111531,豊清水,Yutaka Shimizu,,,11115,1,982368,中川郡美深町字清水,Nakagawa gun Bifuka chou ji Shimizu,142.270342,44.639503,1946-10-10,2021-03-13,2,1111531,982368,Nakagawa gun Bifuka machi,Hokkaidou
1111532,1111532,天塩川温泉,Teshio kawa onsen,,,11115,1,982502,中川郡音威子府村字咲来,Nakagawa gun Otoineppu son ji saki ki,142.258682,44.665041,0000-00-00,0000-00-00,0,1111532,982502,Nakagawa gun Otoineppu mura,Hokkaidou
1111533,1111533,咲来,Saki ki,,,11115,1,982502,中川郡音威子府村字咲来,Nakagawa gun Otoineppu son ji saki ki,142.267569,44.692702,0000-00-00,0000-00-00,0,1111533,982502,Nakagawa gun Otoineppu mura,Hokkaidou
1111534,1111534,音威子府,Otoineppu,,,11115,1,982501,中川郡音威子府村字音威子府,Nakagawa gun Otoineppu son ji Otoineppu,142.259883,44.729448,0000-00-00,0000-00-00,0,1111534,982501,Nakagawa gun Otoineppu mura,Hokkaidou
1111535,1111535,筬島,Osatou,,,11115,1,982500,中川郡音威子府村字物満内,Nakagawa gun Otoineppu son jibutsu mannai,142.197777,44.738883,0000-00-00,0000-00-00,0,1111535,982500,Nakagawa gun Otoineppu mura,Hokkaidou
1111536,1111536,佐久,Saku,,,11115,1,982622,中川郡中川町字佐久,Nakagawa gun Nakagawa chou ji Saku,142.048562,44.743986,0000-00-00,0000-00-00,0,1111536,982622,Nakagawa gun Nakagawa machi,Hokkaidou
1111537,1111537,天塩中川,Teshio Nakagawa,,,11115,1,982802,中川郡中川町字中川,Nakagawa gun Nakagawa chou ji Nakagawa,142.075335,44.81186,0000-00-00,0000-00-00,0,1111537,982802,Nakagawa gun Nakagawa machi,Hokkaidou
1111538,1111538,歌内,Utanai,,,11115,1,982801,中川郡中川町字歌内,Nakagawa gun Nakagawa chou jikanai,142.052162,44.880493,1923-11-10,2022-03-12,2,1111538,982801,Nakagawa gun Nakagawa machi,Hokkaidou
1111539,1111539,問寒別,Mon kan betsu,,,11115,1,982943,天塩郡幌延町字問寒別,Teshio gun Horonobe chou ji mon kan betsu,142.025562,44.91233,0000-00-00,0000-00-00,0,1111539,982943,Teshio gun Horonobe machi,Hokkaidou
1111540,1111540,糠南,Nuka minami,,,11115,1,983200,天塩郡幌延町字糠南,Teshio gun Horonobe chou ji nuka minami,142.000931,44.920778,0000-00-00,0000-00-00,0,1111540,983200,Teshio gun Horonobe machi,Hokkaidou
1111541,1111541,雄信内,Yuushinnai,,,11115,1,983251,天塩郡幌延町字雄興,Teshio gun Horonobe chou ji yuu kyou,141.935888,44.911735,0000-00-00,0000-00-00,0,1111541,983251,Teshio gun Horonobe machi,Hokkaidou
1111542,1111542,安牛,Yasu ushi,,,11115,1,983226,天塩郡幌延町字開進,Teshio gun Horonobe chou ji Kaishin,141.894187,44.949809,1925-07-20,2021-03-13,2,1111542,983226,Teshio gun Horonobe machi,Hokkaidou
1111543,1111543,南幌延,Nanporo nobe,,,11115,1,983200,天塩郡幌延町字南幌延,Teshio gun Horonobe chou ji Nanporo nobe,141.884892,44.965084,0000-00-00,0000-00-00,0,1111543,983200,Teshio gun Horonobe machi,Hokkaidou
1111544,1111544,上幌延,Ue Horonobe,,,11115,1,983225,天塩郡幌延町字上幌延,Teshio gun Horonobe chou jijou Horonobe,141.880905,44.985787,1925-07-20,2021-03-13,2,1111544,983225,Teshio gun Horonobe machi,Hokkaidou
1111545,1111545,幌延,Horonobe,,,11115,1,983211,天塩郡幌延町１条南１丁目,Teshio gun Horonobe chou 1 jou minami 1 choume,141.84569,45.014503,0000-00-00,0000-00-00,0,1111545,983211,Teshio gun Horonobe machi,Hokkaidou
1111546,1111546,下沼,Shimonuma,,,11115,1,983228,天塩郡幌延町字下沼,Teshio gun Horonobe chou ji Shimonuma,141.758218,45.037146,0000-00-00,0000-00-00,0,1111546,983228,Teshio gun Horonobe machi,Hokkaidou
1111547,1111547,豊富,Houfu,,,11115,1,984100,天塩郡豊富町字上サロベツ,Teshio gun Toyotomichou jijou Sarobetsu,141.772088,45.104624,0000-00-00,0000-00-00,0,1111547,984100,Teshio gun Toyotomichou,Hokkaidou
1111548,1111548,徳満,Toku man,,,11115,1,984137,天塩郡豊富町字徳満,Teshio gun Toyotomichou ji toku man,141.751039,45.145838,1926-09-25,2021-03-13,2,1111548,984137,Teshio gun Toyotomichou,Hokkaidou
1111549,1111549,兜沼,Kabutonuma,,,11115,1,984451,天塩郡豊富町字兜沼,Teshio gun Toyotomichou ji Kabutonuma,141.6972,45.220236,0000-00-00,0000-00-00,0,1111549,984451,Teshio gun Toyotomichou,Hokkaidou
1111550,1111550,勇知,Isamu Tomo,,,11115,1,984581,稚内市字抜海村上勇知,Wakkanai shi ji Bakkai Murakami Isamu chi,141.685151,45.259339,0000-00-00,0000-00-00,0,1111550,984581,Wakkanai shi,Hokkaidou
1111551,1111551,抜海,Bakkai,,,11115,1,970036,稚内市字抜海村クトネベツ,Wakkanai shi ji Bakkai mura kutonebetsu,141.644576,45.316866,0000-00-00,0000-00-00,0,1111551,970036,Wakkanai shi,Hokkaidou
1111552,1111552,南稚内,Minami Wakkanai,,,11115,1,970005,稚内市大黒１丁目,Wakkanai shi daikoku 1 choume,141.683026,45.398166,0000-00-00,0000-00-00,0,1111552,970005,Wakkanai shi,Hokkaidou
1111553,1111553,稚内,Wakkanai,,,11115,1,970022,稚内市中央３丁目,Wakkanai shi chuuou 3 choume,141.676999,45.416995,0000-00-00,0000-00-00,0,1111553,970022,Wakkanai shi,Hokkaidou
1111601,1110342,旭川,Asahikawa,,,11116,1,700030,旭川市宮下通８丁目,Asahikawa shi Miyashitadoori 8 choume,142.357803,43.763492,0000-00-00,0000-00-00,0,1111601,700030,Asahikawa shi,Hokkaidou
1111602,1111502,旭川四条,Asahikawa Shijou,,,11116,1,788214,旭川市四条通１８丁目,Asahikawa shi Shijou toori 18 choume,142.375815,43.764056,0000-00-00,0000-00-00,0,1111602,788214,Asahikawa shi,Hokkaidou
1111603,1111503,新旭川,Shin'Asahi kawa,,,11116,1,700028,旭川市東八条６丁目,Asahikawa shi higashi Hachijou 6 choume,142.384789,43.780174,0000-00-00,0000-00-00,0,1111603,700028,Asahikawa shi,Hokkaidou
1111604,1111604,南永山,Minami Nagayama,,,11116,1,798420,旭川市永山十条３丁目,Asahikawa shi Nagayama Juujou 3 choume,142.40853,43.78055,0000-00-00,0000-00-00,0,1111604,798420,Asahikawa shi,Hokkaidou
1111605,1111605,東旭川,Higashiasahikawa,,,11116,1,788253,旭川市東旭川北三条５丁目,Asahikawa shi Higashiasahikawa kita san jou 5 choume,142.441544,43.776571,0000-00-00,0000-00-00,0,1111605,788253,Asahikawa shi,Hokkaidou
1111606,1111606,北日ノ出,Kita Hinode,,,11116,1,788203,旭川市東旭川町日ノ出,Asahikawa shi Higashiasahikawa chou Hinode,142.466127,43.781813,1960-05-02,2021-03-13,2,1111606,788203,Asahikawa shi,Hokkaidou
1111607,1111607,桜岡,Sakuraoka,,,11116,1,788204,旭川市東旭川町桜岡,Asahikawa shi Higashiasahikawa chou Sakuraoka,142.486968,43.801812,0000-00-00,0000-00-00,0,1111607,788204,Asahikawa shi,Hokkaidou
1111608,1111608,当麻,Taima,,,11116,1,781300,上川郡当麻町市街,Kamikawa gun Touma chou shigai,142.516987,43.825477,0000-00-00,0000-00-00,0,1111608,781300,Kamikawa gun Touma machi,Hokkaidou
1111609,1111609,将軍山,Shougunsan,,,11116,1,781334,上川郡当麻町北星２区,Kamikawa gun Touma chou hokusei 2 ku,142.521559,43.857455,1960-05-02,2021-03-13,2,1111609,781334,Kamikawa gun Touma machi,Hokkaidou
1111610,1111610,伊香牛,Ika ushi,,,11116,1,781333,上川郡当麻町伊香牛,Kamikawa gun Touma chou Ika ushi,142.525227,43.876025,0000-00-00,0000-00-00,0,1111610,781333,Kamikawa gun Touma machi,Hokkaidou
1111611,1111611,愛別,Aibetsu,,,11116,1,781401,上川郡愛別町字愛別,Kamikawa gun Aibetsu chou ji aibetsu,142.582176,43.898635,0000-00-00,0000-00-00,0,1111611,781401,Kamikawa gun Aibetsu machi,Hokkaidou
1111612,1111612,中愛別,Chuuaibetsu,,,11116,1,781652,上川郡愛別町字中央,Kamikawa gun Aibetsu chou ji chuuou,142.655424,43.896216,0000-00-00,0000-00-00,0,1111612,781652,Kamikawa gun Aibetsu machi,Hokkaidou
1111613,1111613,愛山,Aizan,,,11116,1,781653,上川郡愛別町字愛山,Kamikawa gun Aibetsu chou ji Aizan,142.680699,43.866442,0000-00-00,2024-03-16,2,1111613,781653,Kamikawa gun Aibetsu machi,Hokkaidou
1111614,1111614,安足間,Yasu ashikan,,,11116,1,781653,上川郡愛別町字愛山,Kamikawa gun Aibetsu chou ji Aizan,142.693868,43.852011,0000-00-00,0000-00-00,0,1111614,781653,Kamikawa gun Aibetsu machi,Hokkaidou
1111615,1111615,東雲,Shinonome,,,11116,1,781731,上川郡上川町東雲,Kamikawa gun Kamikawa machi shinonome,142.716544,43.843693,1960-05-02,2021-03-13,2,1111615,781731,Kamikawa gun Kamikawa machi,Hokkaidou
1111616,1111616,上川,Kamikawa,,,11116,1,781741,上川郡上川町中央町,Kamikawa gun Kamikawa chou Chuuouchou,142.766895,43.848508,0000-00-00,0000-00-00,0,1111616,781741,Kamikawa gun Kamikawa machi,Hokkaidou
1111617,1111617,上白滝,Ue shirataki,,,11116,1,990127,紋別郡遠軽町上白滝,Monbetsu gun Engaru chou ue shirataki,143.1444,43.876501,1932-10-01,2016-03-26,2,1111617,990127,Monbetsu gun Engaru machi,Hokkaidou
1111618,1111618,白滝,Shirataki,,,11116,1,990111,紋別郡遠軽町白滝,Monbetsu gun Engaru chou Shirataki,143.180795,43.884435,0000-00-00,0000-00-00,0,1111618,990111,Monbetsu gun Engaru machi,Hokkaidou
1111619,1111619,旧白滝,Kyuu Shirataki,,,11116,1,990102,紋別郡遠軽町旧白滝,Monbetsu gun Engaru chou kyuu Shirataki,143.236729,43.919905,1947-02-11,2016-03-26,2,1111619,990102,Monbetsu gun Engaru machi,Hokkaidou
1111620,1111620,下白滝,Shita Shirataki,,,11116,1,990101,紋別郡遠軽町下白滝,Monbetsu gun Engaru chouka shirataki,143.276088,43.944553,1929-08-12,2016-03-26,2,1111620,990101,Monbetsu gun Engaru machi,Hokkaidou
1111621,1111621,丸瀬布,Maruseppu,,,11116,1,990203,紋別郡遠軽町丸瀬布中町,Monbetsu gun Engaru chou Maruseppu Nakachou,143.335817,44.006354,0000-00-00,0000-00-00,0,1111621,990203,Monbetsu gun Engaru machi,Hokkaidou
1111622,1111622,瀬戸瀬,Seto se,,,11116,1,990342,紋別郡遠軽町字瀬戸瀬西町,Monbetsu gun Engaru chou ji Seto se Nishimachi,143.420937,44.008753,0000-00-00,0000-00-00,0,1111622,990342,Monbetsu gun Engaru machi,Hokkaidou
1111623,1111623,遠軽,Engaru,,,11116,1,990415,紋別郡遠軽町岩見通南１丁目,Monbetsu gun Engaru chou Iwami Tsuu minami 1 choume,143.520667,44.060278,0000-00-00,0000-00-00,0,1111623,990415,Monbetsu gun Engaru machi,Hokkaidou
1111624,1111624,安国,Ankoku,,,11116,1,990622,紋別郡遠軽町生田原安国,Monbetsu gun Engaru chou Ikutahara ankoku,143.535762,43.993322,0000-00-00,0000-00-00,0,1111624,990622,Monbetsu gun Engaru machi,Hokkaidou
1111625,1111625,生野,Ikuno,,,11116,1,990701,紋別郡遠軽町生田原,Monbetsu gun Engaru chou Ikutahara,143.532945,43.959928,1946-12-01,2021-03-13,2,1111625,990701,Monbetsu gun Engaru machi,Hokkaidou
1111626,1111626,生田原,Ikutahara,,,11116,1,990701,紋別郡遠軽町生田原,Monbetsu gun Engaru chou Ikutahara,143.534627,43.923674,0000-00-00,0000-00-00,0,1111626,990701,Monbetsu gun Engaru machi,Hokkaidou
1111627,1111627,金華,Kinka,,,11116,1,910021,北見市留辺蘂町金華,Kitami shi Rubeshibe chou Kinka,143.57114,43.803484,1914-10-05,2016-03-26,2,1111627,910021,Kitami shi,Hokkaidou
1111628,1111628,西留辺蘂,Nishi Rubeshibe,,,11116,1,910027,北見市留辺蘂町旭西３３４番地の１,Kitami shi Rubeshibe chou Asahi nishi 334 banchi no 1,143.603257,43.785345,0000-00-00,0000-00-00,0,1111628,910027,Kitami shi,Hokkaidou
1111629,1111629,留辺蘂,Rubeshibe,,,11116,1,910002,北見市留辺蘂町東町,Kitami shi Rubeshibe machi higashi machi,143.621394,43.785534,0000-00-00,0000-00-00,0,1111629,910002,Kitami shi,Hokkaidou
1111630,1111630,相内,Aiuchi,,,11116,1,990871,北見市相内町,Kitami shishounai machi,143.756449,43.795948,0000-00-00,0000-00-00,0,1111630,990871,Kitami shi,Hokkaidou
1111631,1111631,東相内,Higashishounai,,,11116,1,990878,北見市東相内町,Kitami shi Higashishounai machi,143.809499,43.805466,0000-00-00,0000-00-00,0,1111631,990878,Kitami shi,Hokkaidou
1111632,1111632,西北見,Nishi Kitami,,,11116,1,900055,北見市緑町６丁目,Kitami shi Midorichou 6 choume,143.841586,43.803114,0000-00-00,0000-00-00,0,1111632,900055,Kitami shi,Hokkaidou
1111633,1111633,北見,Kitami,,,11116,1,900040,北見市大通西１丁目,Kitami shi daitsuu nishi 1 choume,143.898167,43.805504,0000-00-00,0000-00-00,0,1111633,900040,Kitami shi,Hokkaidou
1111634,1111634,柏陽,Kashiwa Akira,,,11116,1,900012,北見市並木町,Kitami shi Namiki machi,143.916737,43.824911,0000-00-00,0000-00-00,0,1111634,900012,Kitami shi,Hokkaidou
1111635,1111635,愛し野,Aishiya,,,11116,1,992103,北見市端野町三区,Kitami shi Tanno chou san ku,143.932962,43.841426,0000-00-00,0000-00-00,0,1111635,992103,Kitami shi,Hokkaidou
1111636,1111636,端野,Tanno,,,11116,1,992104,北見市端野町端野,Kitami shi Tanno chou Tanno,143.942336,43.851172,0000-00-00,0000-00-00,0,1111636,992104,Kitami shi,Hokkaidou
1111637,1111637,緋牛内,Higyuunai,,,11116,1,992231,北見市端野町緋牛内,Kitami shi Tanno chou higyuunai,143.999887,43.880431,0000-00-00,0000-00-00,0,1111637,992231,Kitami shi,Hokkaidou
1111638,1111638,美幌,Bihoro,,,11116,1,920015,網走郡美幌町字新町３丁目,Abashiri gun Bihoro chou ji Shinmachi 3 choume,144.10563,43.836967,0000-00-00,0000-00-00,0,1111638,920015,Abashiri gun Bihoro machi,Hokkaidou
1111639,1111639,西女満別,Nishi Memanbetsu,,,11116,1,992301,網走郡大空町女満別本郷,Abashiri gun oozora machi Memanbetsu Hongou,144.148372,43.880057,0000-00-00,0000-00-00,0,1111639,992301,Abashiri gun oozora machi,Hokkaidou
1111640,1111640,女満別,Memanbetsu,,,11116,1,992310,網走郡大空町女満別本通１丁目,Abashiri gun oozora machi Memanbetsu hondoori 1 choume,144.170665,43.915886,0000-00-00,0000-00-00,0,1111640,992310,Abashiri gun oozora machi,Hokkaidou
1111641,1111641,呼人,Yobito,,,11116,1,992421,網走市呼人,Abashiri shi Yobito,144.218945,43.963695,0000-00-00,0000-00-00,0,1111641,992421,Abashiri shi,Hokkaidou
1111642,1111642,網走,Abashiri,,,11116,1,930046,網走市新町２丁目,Abashiri shi Shinmachi 2 choume,144.254156,44.019873,0000-00-00,0000-00-00,0,1111642,930046,Abashiri shi,Hokkaidou
1111701,1111642,網走,Abashiri,,,11117,1,930046,網走市新町２丁目,Abashiri shi Shinmachi 2 choume,144.254156,44.019873,0000-00-00,0000-00-00,0,1111701,930046,Abashiri shi,Hokkaidou
1111702,1111702,桂台,Katsuradai,,,11117,1,930031,網走市台町１丁目,Abashiri shi dai chou 1 choume,144.273223,44.016913,0000-00-00,0000-00-00,0,1111702,930031,Abashiri shi,Hokkaidou
1111703,1111703,鱒浦,Masu ura,,,11117,1,993119,網走市字鱒浦,Abashiri shi ji masu ura,144.296526,43.982481,0000-00-00,0000-00-00,0,1111703,993119,Abashiri shi,Hokkaidou
1111704,1111704,藻琴,Mokoto,,,11117,1,993111,網走市字藻琴,Abashiri shi ji Mokoto,144.320079,43.968358,0000-00-00,0000-00-00,0,1111704,993111,Abashiri shi,Hokkaidou
1111705,1111705,北浜,Kitahama,,,11117,1,993112,網走市字北浜,Abashiri shi ji Kitahama,144.352541,43.958549,0000-00-00,0000-00-00,0,1111705,993112,Abashiri shi,Hokkaidou
1111706,1111706,原生花園,Gensei Hanazono,,,11117,1,993452,斜里郡小清水町浜小清水,Shari gun Koshimizu machi hama Koshimizu,144.41443,43.941033,0000-00-00,0000-00-00,0,1111706,993452,Shari gun Koshimizu machi,Hokkaidou
1111707,1111707,浜小清水,Hama Koshimizu,,,11117,1,993452,斜里郡小清水町字浜小清水,Shari gun Koshimizu chou ji hama Koshimizu,144.453187,43.934077,0000-00-00,0000-00-00,0,1111707,993452,Shari gun Koshimizu machi,Hokkaidou
1111708,1111708,止別,Yamubetsu,,,11117,1,993454,斜里郡小清水町字止別,Shari gun Koshimizu chou ji Yamubetsu,144.519818,43.921558,0000-00-00,0000-00-00,0,1111708,993454,Shari gun Koshimizu machi,Hokkaidou
1111709,1111709,知床斜里,Shiretoko Shari,,,11117,1,994112,斜里郡斜里町港町,Shari gun Shari machi minatomachi,144.661647,43.910749,0000-00-00,0000-00-00,0,1111709,994112,Shari gun Shari machi,Hokkaidou
1111710,1111710,中斜里,ChuuShari,,,11117,1,994142,斜里郡斜里町字中斜里,Shari gun Shari chou jichuu Shari,144.659033,43.874608,0000-00-00,0000-00-00,0,1111710,994142,Shari gun Shari machi,Hokkaidou
1111711,1111711,南斜里,Minami Shari,,,11117,1,994143,斜里郡斜里町字川上,Shari gun Shari chou ji Kawakami,144.63431,43.867531,1962-10-01,2021-03-13,2,1111711,994143,Shari gun Shari machi,Hokkaidou
1111712,1111712,清里町,Kiyosato machi,,,11117,1,994406,斜里郡清里町水元町,Shari gun Kiyosato chou sui Motomachi,144.593948,43.83871,0000-00-00,0000-00-00,0,1111712,994406,Shari gun Kiyosato machi,Hokkaidou
1111713,1111713,札弦,Sattsuru,,,11117,1,994521,斜里郡清里町札弦町,Shari gun Kiyosato chou Sattsuru machi,144.531526,43.786574,0000-00-00,0000-00-00,0,1111713,994521,Shari gun Kiyosato machi,Hokkaidou
1111714,1111714,緑,Midori,,,11117,1,994525,斜里郡清里町緑町,Shari gun Kiyosato chou Midorichou,144.505499,43.718282,0000-00-00,0000-00-00,0,1111714,994525,Shari gun Kiyosato machi,Hokkaidou
1111715,1111715,川湯温泉,Kawayu onsen,,,11117,1,883462,川上郡弟子屈町字川湯駅前,Kawakami gun Teshikaga chou ji Kawayu ekimae,144.457749,43.616258,0000-00-00,0000-00-00,0,1111715,883462,Kawakami gun Teshikaga machi,Hokkaidou
1111716,1111716,美留和,Biruwa,,,11117,1,883331,川上郡弟子屈町字美留和,Kawakami gun Teshikaga chou ji Biruwa,144.437656,43.555316,0000-00-00,0000-00-00,0,1111716,883331,Kawakami gun Teshikaga machi,Hokkaidou
1111716,1111716,美留和,Biruwa,,,11117,1,883331,川上郡弟子屈町字美留和,Kawakami gun Teshikaga chou ji Biruwa,144.437656,43.555316,0000-00-00,0000-00-00,0,1111716,883331,Kawakami gun Teshikaga machi,Hokkaidou
1111717,1111717,摩周,Mashuu,,,11117,1,883204,川上郡弟子屈町字朝日１丁目,Kawakami gun Teshikaga chou ji asahi 1 choume,144.463981,43.487373,0000-00-00,0000-00-00,0,1111717,883204,Kawakami gun Teshikaga machi,Hokkaidou
1111718,1111718,南弟子屈,Minami Teshikaga,,,11117,1,883200,川上郡弟子屈町字熊牛原野,Kawakami gun Teshikaga chou ji Kumaushi gen'ya,144.514729,43.428656,1929-08-15,2020-03-14,2,1111718,883200,Kawakami gun Teshikaga machi,Hokkaidou
1111719,1111719,磯分内,Isobunnai,,,11117,1,882300,川上郡標茶町字熊牛原野,Kawakami gun Shibecha chou ji Kumaushi gen'ya,144.554322,43.379389,0000-00-00,0000-00-00,0,1111719,882300,Kawakami gun Shibecha machi,Hokkaidou
1111720,1111720,標茶,Shibecha,,,11117,1,882314,川上郡標茶町字標茶,Kawakami gun Shibecha chou ji Shibecha,144.608434,43.298472,0000-00-00,0000-00-00,0,1111720,882314,Kawakami gun Shibecha machi,Hokkaidou
1111721,1111721,五十石,Gojuu koku,,,11117,1,882331,川上郡標茶町オソツベツ原野,Kawakami gun Shibecha chou osotsubetsu gen'ya,144.545558,43.238771,1927-09-15,2017-03-04,2,1111721,882331,Kawakami gun Shibecha machi,Hokkaidou
1111721,1111721,五十石,Gojuu koku,,,11117,1,882331,川上郡標茶町オソツベツ原野,Kawakami gun Shibecha chou osotsubetsu gen'ya,144.545558,43.238771,1927-09-15,2017-03-04,2,1111721,882331,Kawakami gun Shibecha machi,Hokkaidou
1111722,1111722,茅沼,Kayanuma,,,11117,1,882265,川上郡標茶町シラルトロエトロ,Kawakami gun Shibecha chou shirarutoroetoro,144.503788,43.202097,0000-00-00,0000-00-00,0,1111722,882265,Kawakami gun Shibecha machi,Hokkaidou
1111722,1111722,茅沼,Kayanuma,,,11117,1,882265,川上郡標茶町シラルトロエトロ,Kawakami gun Shibecha chou shirarutoroetoro,144.503788,43.202097,0000-00-00,0000-00-00,0,1111722,882265,Kawakami gun Shibecha machi,Hokkaidou
1111723,1111723,塘路,Touro,,,11117,1,882261,川上郡標茶町字塘路,Kawakami gun Shibecha chou ji Touro,144.496817,43.151739,0000-00-00,0000-00-00,0,1111723,882261,Kawakami gun Shibecha machi,Hokkaidou
1111724,1111724,細岡,Hoso oka,,,11117,1,882148,釧路郡釧路町字鳥通牛原野,Kushiro gun Kushiro chou jichou tsuugyuu gen'ya,144.469683,43.105055,0000-00-00,0000-00-00,0,1111724,882148,Kushiro gun Kushiro machi,Hokkaidou
1111725,1111725,釧路湿原,Kushiro shitsugen,,,11117,1,882148,釧路郡釧路町鳥通原野,Kushiro gun Kushiro machi tori tsuu gen'ya,144.447799,43.100647,0000-00-00,0000-00-00,0,1111725,882148,Kushiro gun Kushiro machi,Hokkaidou
1111726,1111726,遠矢,Tooya,,,11117,1,882145,釧路郡釧路町字遠矢,Kushiro gun Kushiro chou ji tooya,144.458367,43.047878,0000-00-00,0000-00-00,0,1111726,882145,Kushiro gun Kushiro machi,Hokkaidou
1111727,1110802,東釧路,Higashi Kushiro,,,11117,1,850816,釧路市貝塚２丁目,Kushiro shi Kaizuka 2 choume,144.411307,42.995207,0000-00-00,0000-00-00,0,1111727,850816,Kushiro shi,Hokkaidou
1111728,1110731,釧路,Kushiro,,,11117,1,850015,釧路市北大通１４丁目,Kushiro shi Kita daitsuu 14 choume,144.381983,42.990584,0000-00-00,0000-00-00,0,1111728,850015,Kushiro shi,Hokkaidou
1111801,1111801,中小国,Chuushoukoku,,,11118,2,301305,東津軽郡外ヶ浜町蟹田小国,Higashitsugaru gun Sotogahama chou Kanita shoukoku,140.596798,41.051702,0000-00-00,0000-00-00,0,1111801,301305,Higashitsugaru gun Sotogahama machi,Aomori ken
1111802,1111802,奥津軽いまべつ,Oku Tsugaru ima betsu,,,11118,2,301505,東津軽郡今別町大字大川平字清川91-1,Higashitsugaru gun Imabetsu machi ooazadai Kabira ji Kiyokawa 91 - 1,140.515444,41.145083,0000-00-00,0000-00-00,0,1111802,301505,Higashitsugaru gun Imabetsu machi,Aomori ken
1111803,1111803,竜飛海底,Tappi kaitei,,,11118,2,301400,東津軽郡外ヶ浜町三厩宇鉄立浜,Higashitsugaru gun Sotogahama chou Minmaya Sakaitetsuritsu hama,140.347946,41.257228,1988-03-13,2014-03-14,2,1111803,301400,Higashitsugaru gun Sotogahama machi,Aomori ken
1111804,1111804,吉岡海底,Yoshioka kaitei,,,11118,1,491454,松前郡福島町館崎,Masaki gun Fukushima chou Tatesaki,140.239354,41.442162,1988-03-13,2014-03-14,2,1111804,491454,Masaki gun Fukushima machi,Hokkaidou
1111805,1111805,知内,Shiriuchi,,,11118,1,491221,上磯郡知内町湯ノ里,Kamiiso gun Shiriuchi machi yu no sato,140.33494,41.601092,1990-07-01,2014-03-14,2,1111805,491221,Kamiiso gun Shiriuchi machi,Hokkaidou
